Country,City,AQI Value,AQI Category,CO AQI Value,CO AQI Category,Ozone AQI Value,Ozone AQI Category,NO2 AQI Value,NO2 AQI Category,PM2.5 AQI Value,PM2.5 AQI Category,Latitude,Longitude
Russian Federation,Praskoveya,51,Moderate,1,Good,36,Good,0,Good,51,Moderate,,
Brazil,Presidente Dutra,41,Good,1,Good,5,Good,1,Good,41,Good,-11.2959181,-41.9871566
Italy,Priolo Gargallo,66,Moderate,1,Good,39,Good,2,Good,66,Moderate,37.1579298,15.1860285
Poland,Przasnysz,34,Good,1,Good,34,Good,0,Good,20,Good,53.0190219,20.8804028
France,Punaauia,22,Good,0,Good,22,Good,0,Good,6,Good,-17.5929204,-149.6063669
United States of America,Punta Gorda,54,Moderate,1,Good,14,Good,11,Good,54,Moderate,26.9351529,-82.0512058
Germany,Puttlingen,62,Moderate,1,Good,35,Good,3,Good,62,Moderate,49.287307,6.8827786
Belgium,Puurs,64,Moderate,1,Good,29,Good,7,Good,64,Moderate,51.0772325,4.2828146
Russian Federation,Pyatigorsk,54,Moderate,1,Good,41,Good,1,Good,54,Moderate,44.03754375,43.03636670627726
Egypt,Qalyub,142,Unhealthy for Sensitive Groups,3,Good,89,Moderate,9,Good,142,Unhealthy for Sensitive Groups,30.178875,31.206436
China,Qinzhou,68,Moderate,2,Good,68,Moderate,1,Good,58,Moderate,34.5797531,105.7062921
Netherlands,Raalte,41,Good,1,Good,24,Good,6,Good,41,Good,52.3874327,6.307848238791079
India,Radaur,158,Unhealthy,3,Good,139,Unhealthy for Sensitive Groups,1,Good,158,Unhealthy,30.043406750000003,77.18544414524905
Pakistan,Radhan,158,Unhealthy,1,Good,50,Good,1,Good,158,Unhealthy,27.1775378,67.9512147
Republic of North Macedonia,Radovis,83,Moderate,1,Good,46,Good,0,Good,83,Moderate,41.639832,22.4645893
France,Raismes,59,Moderate,1,Good,30,Good,4,Good,59,Moderate,50.3916313,3.4823888
India,Rajgir,154,Unhealthy,3,Good,100,Unhealthy for Sensitive Groups,2,Good,154,Unhealthy,25.0299973,85.4207368
Italy,Ramacca,55,Moderate,1,Good,47,Good,0,Good,55,Moderate,37.388048,14.692681
United States of America,Phoenix,72,Moderate,1,Good,4,Good,23,Good,72,Moderate,33.4484367,-112.074141
India,Phulabani,161,Unhealthy,2,Good,71,Moderate,0,Good,161,Unhealthy,20.50756595,84.22731067744127
Poland,Piaseczno,28,Good,1,Good,28,Good,2,Good,28,Good,52.0747377,21.0270885
India,Pimpri,118,Unhealthy for Sensitive Groups,2,Good,30,Good,2,Good,118,Unhealthy for Sensitive Groups,18.623185399999997,73.80199315
Brazil,Pindobacu,33,Good,0,Good,10,Good,1,Good,33,Good,-10.7439121,-40.3619457
China,Pingyin,150,Unhealthy,3,Good,95,Moderate,6,Good,150,Unhealthy,36.2894384,116.4503206
Brazil,Pinheiral,154,Unhealthy,5,Good,0,Good,13,Good,154,Unhealthy,-22.5129436,-44.001435
India,Piravam,81,Moderate,1,Good,24,Good,1,Good,81,Moderate,9.8290255,76.4555856
Colombia,Plato,67,Moderate,1,Good,16,Good,2,Good,67,Moderate,9.7904163,-74.7820016
Romania,Poiana Mare,62,Moderate,1,Good,37,Good,1,Good,62,Moderate,43.9193248,23.0649446
Russian Federation,Polevskoy,31,Good,1,Good,31,Good,0,Good,17,Good,56.442108,60.165859
France,Pontarlier,56,Moderate,1,Good,35,Good,0,Good,56,Moderate,46.9040348,6.3546345
United States of America,Pontiac,77,Moderate,2,Good,22,Good,15,Good,77,Moderate,42.6389216,-83.2910468
Indonesia,Pontianak,44,Good,1,Good,15,Good,0,Good,44,Good,-0.0226903,109.3447488
Brazil,Porecatu,30,Good,1,Good,9,Good,2,Good,30,Good,-22.753724,-51.37949
Finland,Pori,30,Good,1,Good,30,Good,1,Good,15,Good,61.4866126,21.7972071
South Africa,Port Elizabeth,79,Moderate,3,Good,18,Good,5,Good,79,Moderate,-33.9618359,25.6186512
United States of America,Port Neches,34,Good,1,Good,19,Good,7,Good,34,Good,29.9913244,-93.9585067
United Kingdom of Great Britain and Northern Ireland,Port Talbot,51,Moderate,1,Good,20,Good,5,Good,51,Moderate,51.5952353,-3.7824148
United States of America,Portales,77,Moderate,1,Good,34,Good,0,Good,77,Moderate,34.1859636,-103.3373367
United States of America,Post Falls,61,Moderate,1,Good,32,Good,3,Good,61,Moderate,47.7110106,-116.9480877
Brazil,Pouso Alegre,32,Good,1,Good,7,Good,2,Good,32,Good,-22.2343858,-45.9327241
China,Dalinghe,64,Moderate,3,Good,64,Moderate,4,Good,64,Moderate,41.1741391,121.3537276
Russian Federation,Dalnegorsk,29,Good,0,Good,29,Good,0,Good,25,Good,44.559457,135.5759241
United Republic of Tanzania,Dar Es Salaam,51,Moderate,1,Good,23,Good,0,Good,51,Moderate,-6.8160837,39.2803583
India,Darbhanga,247,Very Unhealthy,3,Good,162,Unhealthy,1,Good,247,Very Unhealthy,26.082989949999998,86.03249509324232
United States of America,Dayton,45,Good,1,Good,32,Good,7,Good,45,Good,39.7589478,-84.1916069
Belgium,Deinze,36,Good,1,Good,25,Good,3,Good,36,Good,50.9840526,3.5274017
Egypt,Dekernes,81,Moderate,2,Good,81,Moderate,4,Good,56,Moderate,31.0875714,31.5949593
Haiti,Delmas,124,Unhealthy for Sensitive Groups,2,Good,15,Good,5,Good,124,Unhealthy for Sensitive Groups,18.5518464,-72.2920071
United States of America,Deming,72,Moderate,1,Good,26,Good,2,Good,72,Moderate,32.2627416,-107.7581979
United Kingdom of Great Britain and Northern Ireland,Denton,55,Moderate,0,Good,32,Good,1,Good,55,Moderate,53.4547745,-2.1153406
United States of America,Destin,31,Good,0,Good,31,Good,0,Good,25,Good,30.3935337,-86.4957834
Pakistan,Dhadar,157,Unhealthy,1,Good,89,Moderate,0,Good,157,Unhealthy,29.4742254,67.6519862
India,Dharmapuri,60,Moderate,1,Good,31,Good,1,Good,60,Moderate,12.14561305,78.11322171666458
Pakistan,Digri,153,Unhealthy,1,Good,40,Good,0,Good,153,Unhealthy,25.1570717,69.1107851
Somalia,Dinsor,22,Good,0,Good,19,Good,0,Good,22,Good,,
Philippines,Dipolog,30,Good,1,Good,17,Good,0,Good,30,Good,8.5864062,123.3449371
Latvia,Dobele,44,Good,1,Good,34,Good,0,Good,44,Good,56.6257485,23.277275
United States of America,Grandville,47,Good,1,Good,37,Good,4,Good,47,Good,42.909598,-85.7630956
Netherlands,Grave,37,Good,0,Good,32,Good,2,Good,37,Good,51.7596504,5.7411125
United States of America,Green Valley,44,Good,1,Good,14,Good,8,Good,44,Good,34.6200885,-118.4131734
United States of America,Greendale,58,Moderate,2,Good,14,Good,24,Good,58,Moderate,42.9406083,-87.995993
Poland,Grudziadz,37,Good,0,Good,33,Good,0,Good,37,Good,53.4876477,18.7557746
Colombia,Guamo,89,Moderate,3,Good,3,Good,6,Good,89,Moderate,4.0303906,-74.9679007
Italy,Guardiagrele,52,Moderate,2,Good,38,Good,7,Good,52,Moderate,42.1954758,14.2197122
Chad,Guelengdeng,59,Moderate,2,Good,16,Good,0,Good,59,Moderate,10.9203251,15.5467805
United Kingdom of Great Britain and Northern Ireland,Guildford,51,Moderate,1,Good,25,Good,6,Good,51,Moderate,51.2356068,-0.5732063
Philippines,Guiset,66,Moderate,1,Good,26,Good,1,Good,66,Moderate,15.7208747,120.7775143
Russian Federation,Gukovo,38,Good,1,Good,38,Good,0,Good,13,Good,48.0530303,39.9441925
United States of America,Havre De Grace,34,Good,1,Good,30,Good,7,Good,34,Good,39.548827,-76.0898259
United States of America,Hazelwood,88,Moderate,2,Good,11,Good,20,Good,88,Moderate,38.7761446,-90.3715909
Germany,Heddesheim,54,Moderate,1,Good,31,Good,3,Good,54,Moderate,49.5054905,8.6024574
Germany,Heiligenhaus,44,Good,1,Good,28,Good,3,Good,44,Good,51.32658,6.9710401
United Kingdom of Great Britain and Northern Ireland,Hemel Hempstead,51,Moderate,1,Good,26,Good,6,Good,51,Moderate,51.7511784,-0.472528
United States of America,Hicksville,67,Moderate,2,Good,15,Good,23,Good,67,Moderate,40.7695303,-73.5293246083624
Brazil,Hidrolandia,42,Good,1,Good,5,Good,2,Good,42,Good,-16.9671342,-49.22826
India,Gyanpur,189,Unhealthy,2,Good,99,Moderate,1,Good,189,Unhealthy,25.316620399999998,82.38599337007872
Germany,Haiger,49,Good,1,Good,25,Good,3,Good,49,Good,50.7752801,8.2129059
China,Hangzhou,203,Very Unhealthy,5,Good,203,Very Unhealthy,5,Good,151,Unhealthy,30.2489634,120.2052342
Germany,Harrislee,35,Good,0,Good,32,Good,0,Good,35,Good,54.8047109,9.3915374
United States of America,Harrison,90,Moderate,1,Good,25,Good,2,Good,90,Moderate,32.5233959,-94.3982158
India,Harur,67,Moderate,1,Good,26,Good,1,Good,67,Moderate,12.0545748,78.4786186
Germany,Hasbergen,36,Good,0,Good,34,Good,1,Good,36,Good,52.2414052,7.9625883
France,Haubourdin,48,Good,1,Good,28,Good,4,Good,48,Good,50.6093554,2.9864421
United States of America,Taunton,41,Good,1,Good,28,Good,10,Good,41,Good,41.9019257,-71.0931485
New Zealand,Tauranga,19,Good,0,Good,19,Good,1,Good,17,Good,-37.6859006,176.167505
Tunisia,Tawzar,73,Moderate,1,Good,43,Good,0,Good,73,Moderate,,
Viet Nam,Tay Ninh,45,Good,0,Good,18,Good,1,Good,45,Good,11.4019366,106.1626927
Iran (Islamic Republic of),Taybad,170,Unhealthy,1,Good,43,Good,0,Good,170,Unhealthy,,
Italy,Teano,47,Good,1,Good,47,Good,1,Good,36,Good,41.2510841,14.0671513
India,Tekkali,155,Unhealthy,3,Good,82,Moderate,1,Good,155,Unhealthy,18.6084345,84.2310948
Brazil,Teodoro Sampaio,46,Good,1,Good,9,Good,1,Good,46,Good,-12.3053855,-38.6408979
Mexico,Tepeaca,172,Unhealthy,5,Good,2,Good,11,Good,172,Unhealthy,18.9680556,-97.9025
Mexico,Tequila,64,Moderate,1,Good,15,Good,2,Good,64,Moderate,21.1158202,-103.81013706053534
Italy,Teramo,44,Good,1,Good,44,Good,1,Good,38,Good,42.65811795,13.69787458752063
Viet Nam,Thai Nguyen,150,Unhealthy,3,Good,150,Unhealthy,1,Good,105,Unhealthy for Sensitive Groups,21.6498502,105.8351394
China,Tianjin,142,Unhealthy for Sensitive Groups,4,Good,113,Unhealthy for Sensitive Groups,9,Good,142,Unhealthy for Sensitive Groups,39.3032619,117.4163641
Indonesia,Tidore,21,Good,0,Good,13,Good,0,Good,21,Good,0.6786796,127.4483156
Romania,Timisoara,47,Good,1,Good,42,Good,0,Good,47,Good,45.7538355,21.2257474
Tunisia,Tinjah,48,Good,1,Good,48,Good,1,Good,29,Good,,
Philippines,Toboso,54,Moderate,1,Good,20,Good,0,Good,54,Moderate,10.7169474,123.5135576
Japan,Tokorozawa,60,Moderate,1,Good,44,Good,3,Good,60,Moderate,35.7987179,139.4696758
Mexico,Toluca,166,Unhealthy,4,Good,8,Good,19,Good,166,Unhealthy,19.292545,-99.6569007
Brazil,Itapissuma,27,Good,0,Good,23,Good,1,Good,27,Good,-7.767983,-34.897136
Brazil,Itarantim,23,Good,1,Good,7,Good,1,Good,23,Good,-15.654591,-40.0601332
Brazil,Itumbiara,31,Good,1,Good,13,Good,0,Good,31,Good,-18.4135862,-49.2172596
Mexico,Ixtaczoquitlan,88,Moderate,3,Good,13,Good,9,Good,88,Moderate,18.85134015,-97.02710712449068
El Salvador,Izalco,90,Moderate,2,Good,22,Good,9,Good,90,Moderate,13.7462134,-89.6756286
United Republic of Tanzania,Izazi,28,Good,1,Good,15,Good,0,Good,28,Good,-7.2413753,35.7218788
Russian Federation,Izberbash,51,Moderate,1,Good,38,Good,0,Good,51,Moderate,42.5710804,47.862999
India,Jabalpur,170,Unhealthy,1,Good,38,Good,0,Good,170,Unhealthy,23.1701522,79.9324505
Brazil,Jaguaquara,22,Good,0,Good,9,Good,1,Good,22,Good,-13.5294974,-39.9693081
India,Jahanabad,168,Unhealthy,4,Good,168,Unhealthy,1,Good,156,Unhealthy,23.50622755,76.468620551118
Bulgaria,Jambol,40,Good,1,Good,40,Good,0,Good,32,Good,42.483935,26.5105553
Poland,Jarocin,47,Good,1,Good,27,Good,2,Good,47,Good,51.9739233,17.5011254
Philippines,Jasaan,59,Moderate,1,Good,32,Good,0,Good,59,Moderate,8.6504031,124.7547085
Nigeria,Ilobu,133,Unhealthy for Sensitive Groups,4,Good,23,Good,3,Good,133,Unhealthy for Sensitive Groups,7.8408473,4.4853735
Finland,Imatra,29,Good,1,Good,29,Good,1,Good,7,Good,61.1923342,28.7716996
Brazil,Indaial,73,Moderate,2,Good,2,Good,8,Good,73,Moderate,-26.8901747,-49.2416736
Philippines,Indang,50,Good,0,Good,24,Good,0,Good,50,Good,14.1958282,120.8784124
Brazil,Itagi,25,Good,0,Good,9,Good,1,Good,25,Good,-14.1627902,-40.0069366
Nigeria,Iseyin,90,Moderate,3,Good,18,Good,2,Good,90,Moderate,7.9710106,3.5956141
Mexico,Isla,81,Moderate,2,Good,26,Good,3,Good,81,Moderate,18.12289035,-95.58427533680396
Brazil,Itaitinga,29,Good,0,Good,20,Good,1,Good,29,Good,-3.965768,-38.529763
Brazil,Itambe,21,Good,0,Good,8,Good,1,Good,21,Good,-15.2435245,-40.6269506
Brazil,Itapemirim,44,Good,1,Good,16,Good,1,Good,44,Good,-21.0105534,-40.8351239
South Sudan,Torit,65,Moderate,1,Good,12,Good,0,Good,65,Moderate,4.4134473,32.5682244
Guatemala,Totonicapan,66,Moderate,2,Good,7,Good,6,Good,66,Moderate,15.042343500000001,-91.40614579955009
United States of America,Trenton,53,Moderate,1,Good,28,Good,10,Good,53,Moderate,40.2203074,-74.7659
United States of America,Trujillo Alto,56,Moderate,0,Good,23,Good,0,Good,56,Moderate,18.33707575,-66.00174210279962
Ireland,Tullamore,57,Moderate,1,Good,26,Good,3,Good,57,Moderate,53.2743768,-7.4927486
Turkey,Tunceli,62,Moderate,0,Good,35,Good,0,Good,62,Moderate,39.2197553,39.4139674
Viet Nam,Tuyen Quang,167,Unhealthy,4,Good,167,Unhealthy,1,Good,107,Unhealthy for Sensitive Groups,21.7879695,105.217387
United States of America,Two Rivers,49,Good,1,Good,27,Good,4,Good,49,Good,44.149206,-87.5682149
United States of America,Tysons Corner,55,Moderate,2,Good,25,Good,11,Good,55,Moderate,38.9191272,-77.22296360086021
Russian Federation,Tyukalinsk,34,Good,1,Good,34,Good,0,Good,32,Good,55.870556,72.196617
India,Udupi,80,Moderate,1,Good,25,Good,0,Good,80,Moderate,13.5269784,74.87318787345797
India,Umaria,163,Unhealthy,2,Good,92,Moderate,0,Good,163,Unhealthy,23.64318365,80.94190777719564
United States of America,Willowbrook,126,Unhealthy for Sensitive Groups,4,Good,3,Good,36,Good,126,Unhealthy for Sensitive Groups,33.9204209,-118.2418543
United States of America,Wilmette,63,Moderate,2,Good,9,Good,22,Good,63,Moderate,42.0887132,-87.7025069
United States of America,Wolf Trap,53,Moderate,2,Good,27,Good,10,Good,53,Moderate,38.938007600000006,-77.26466084669082
United States of America,Woodhaven,86,Moderate,2,Good,38,Good,10,Good,86,Moderate,42.1370519,-83.2451066
China,Wulanhaote,47,Good,2,Good,47,Good,0,Good,25,Good,46.0698111,122.0873444
China,Xiangdong,78,Moderate,2,Good,25,Good,7,Good,78,Moderate,27.5375015,113.7304674
China,Xiaoweizhai,61,Moderate,2,Good,61,Moderate,0,Good,54,Moderate,26.2292619,107.512855
China,Xushan,112,Unhealthy for Sensitive Groups,2,Good,44,Good,4,Good,112,Unhealthy for Sensitive Groups,35.8469301,102.4791136
Peru,Yanacancha,27,Good,0,Good,6,Good,1,Good,27,Good,-12.2010926,-75.3870256
China,Yancheng,155,Unhealthy,3,Good,155,Unhealthy,2,Good,151,Unhealthy,33.349559,120.1577019
Democratic Republic of the Congo,Yangambi,121,Unhealthy for Sensitive Groups,4,Good,24,Good,0,Good,121,Unhealthy for Sensitive Groups,0.7658281,24.4733629
China,Yanggu,160,Unhealthy,3,Good,138,Unhealthy for Sensitive Groups,5,Good,160,Unhealthy,36.1142991,115.7857865
China,Yangliuqing,144,Unhealthy for Sensitive Groups,4,Good,109,Unhealthy for Sensitive Groups,9,Good,144,Unhealthy for Sensitive Groups,39.1414621,116.9960349
China,Yanji,69,Moderate,2,Good,48,Good,0,Good,69,Moderate,43.0718986,129.3755747
United States of America,Yankton,47,Good,1,Good,34,Good,3,Good,47,Good,42.8712938,-97.3967011
Germany,Wenden,69,Moderate,1,Good,34,Good,4,Good,69,Moderate,50.9691051,7.8733251
United States of America,West Carrollton City,84,Moderate,3,Good,9,Good,24,Good,84,Moderate,,
Belgium,Wetteren,64,Moderate,1,Good,32,Good,6,Good,64,Moderate,51.0068804,3.8855494
Canada,Whitehorse,20,Good,1,Good,20,Good,1,Good,10,Good,60.721571,-135.054932
Ireland,Wicklow,38,Good,1,Good,30,Good,3,Good,38,Good,52.9802376,-6.0414184
Switzerland,Wil,59,Moderate,1,Good,27,Good,3,Good,59,Moderate,47.465266,9.0415478
Germany,Wildeshausen,67,Moderate,1,Good,30,Good,5,Good,67,Moderate,52.897103,8.4364342
United States of America,Williamsport,75,Moderate,2,Good,13,Good,16,Good,75,Moderate,41.2411556,-77.0011096
United States of America,Fox Lake,60,Moderate,2,Good,18,Good,21,Good,60,Moderate,42.3966874,-88.1836965
Brazil,Foz Do Iguacu,22,Good,1,Good,13,Good,0,Good,22,Good,-25.5304023,-54.5830692
Denmark,Frederikssund,36,Good,1,Good,36,Good,0,Good,25,Good,55.8417752,12.063595
United States of America,Friendly,41,Good,1,Good,30,Good,8,Good,41,Good,38.756867,-76.96953790491368
Germany,Fuldatal,44,Good,1,Good,28,Good,2,Good,44,Good,51.3781639,9.533699
Japan,Furano,29,Good,1,Good,26,Good,1,Good,29,Good,43.3419744,142.383188
China,Fuzhou,168,Unhealthy,3,Good,168,Unhealthy,5,Good,99,Moderate,26.0774954,119.2918215
United Kingdom of Great Britain and Northern Ireland,Galashiels,25,Good,1,Good,25,Good,3,Good,23,Good,55.616418,-2.8070791
Germany,Gangelt,41,Good,1,Good,26,Good,4,Good,41,Good,50.9928407,5.997057
Germany,Garbsen,36,Good,0,Good,33,Good,1,Good,36,Good,52.4276606,9.6005102
Cameroon,Garoua,59,Moderate,2,Good,12,Good,0,Good,59,Moderate,9.3070698,13.3934527
Somalia,Garowe,98,Moderate,0,Good,17,Good,0,Good,98,Moderate,8.406143,48.483195
Netherlands,Geertruidenberg,35,Good,0,Good,33,Good,2,Good,35,Good,51.6961662,4.877843805275408
Australia,Geraldton,29,Good,0,Good,29,Good,0,Good,13,Good,-28.77035,114.6147159
Germany,Germersheim,51,Moderate,1,Good,29,Good,3,Good,51,Moderate,49.2222749,8.36659
Colombia,Girardot,103,Unhealthy for Sensitive Groups,4,Good,9,Good,6,Good,103,Unhealthy for Sensitive Groups,4.306643,-74.8015665
Russian Federation,Glubokiy,35,Good,1,Good,35,Good,0,Good,17,Good,48.5245462,40.3261435
United Kingdom of Great Britain and Northern Ireland,Golborne,35,Good,1,Good,30,Good,4,Good,35,Good,53.4756118,-2.5994277
Portugal,Gondomar,27,Good,0,Good,27,Good,2,Good,21,Good,41.1398199,-8.5326269
Russian Federation,Goryachevodskiy,48,Good,1,Good,39,Good,1,Good,48,Good,,
India,Govindgarh,307,Hazardous,1,Good,45,Good,0,Good,307,Hazardous,24.3786816,81.2992271
Côte d'Ivoire,Grand Lahou,54,Moderate,1,Good,25,Good,0,Good,54,Moderate,5.2503434,-5.0024449
United States of America,Hoffman Estates,61,Moderate,2,Good,26,Good,16,Good,61,Moderate,42.0427256,-88.0792782
Sweden,Hoganas,36,Good,1,Good,36,Good,1,Good,30,Good,56.2,12.566667
United States of America,Holly Springs,42,Good,1,Good,42,Good,2,Good,37,Good,35.6512655,-78.8336218
Germany,Holzminden,42,Good,0,Good,32,Good,1,Good,42,Good,51.8989989,9.5741099
China,Huaicheng,151,Unhealthy,4,Good,45,Good,4,Good,151,Unhealthy,23.9161583,112.1853763
Ethiopia,Huruta,102,Unhealthy for Sensitive Groups,1,Good,23,Good,0,Good,102,Unhealthy for Sensitive Groups,8.148683,39.3534724
Nigeria,Idanre,115,Unhealthy for Sensitive Groups,3,Good,24,Good,2,Good,115,Unhealthy for Sensitive Groups,6.975549,5.254704691689339
Italy,Iglesias,64,Moderate,1,Good,53,Moderate,1,Good,64,Moderate,39.3125402,8.5341109
Germany,Ihlow,40,Good,1,Good,30,Good,2,Good,40,Good,53.40752905,7.399503292953862
Japan,Iizuka,45,Good,1,Good,45,Good,0,Good,38,Good,33.646594,130.6911579
Thailand,Sungai Kolok,65,Moderate,1,Good,34,Good,0,Good,65,Moderate,6.0229548,101.9634532
Indonesia,Sungaipenuh,17,Good,1,Good,13,Good,0,Good,17,Good,-2.09152495,101.41513424384416
Russian Federation,Suvorovskaya,52,Moderate,1,Good,39,Good,1,Good,52,Moderate,44.192057,42.6488415
Japan,Suzu,69,Moderate,1,Good,69,Moderate,1,Good,60,Moderate,37.4363793,137.2606015
Poland,Swiecie,44,Good,1,Good,33,Good,1,Good,44,Good,53.4072518,18.4455253
Hungary,Szeged,50,Good,1,Good,41,Good,1,Good,50,Good,46.2546312,20.1486016
Hungary,Szerencs,72,Moderate,1,Good,42,Good,1,Good,72,Moderate,48.1633851,21.2010881
Tunisia,Taburbah,49,Good,1,Good,49,Good,1,Good,32,Good,,
India,Tadepallegudem,127,Unhealthy for Sensitive Groups,2,Good,65,Moderate,1,Good,127,Unhealthy for Sensitive Groups,16.8165294,81.5296984
Iran (Islamic Republic of),Tafresh,125,Unhealthy for Sensitive Groups,2,Good,125,Unhealthy for Sensitive Groups,1,Good,82,Moderate,,
Philippines,Tagaytay,41,Good,1,Good,25,Good,1,Good,41,Good,14.1032297,120.9317903
Japan,Tajimi,52,Moderate,1,Good,34,Good,3,Good,52,Moderate,35.3329961,137.1319459
Japan,Takahagi,47,Good,1,Good,47,Good,1,Good,44,Good,36.7199765,140.7158414
Japan,Takahashi,36,Good,1,Good,36,Good,3,Good,34,Good,34.7908975,133.6169111
India,Tal,155,Unhealthy,1,Good,39,Good,0,Good,155,Unhealthy,23.945649850000002,82.23440447381303
Philippines,Talacogon,37,Good,1,Good,19,Good,0,Good,37,Good,8.4486711,125.7861565
Russian Federation,Taldom,46,Good,1,Good,27,Good,1,Good,46,Good,56.730941,37.528016
Kazakhstan,Talgar,69,Moderate,1,Good,42,Good,0,Good,69,Moderate,43.3027233,77.2395288
United States of America,Tamiami,64,Moderate,1,Good,18,Good,12,Good,64,Moderate,25.7557987,-80.40093418250305
Israel,Tamra,92,Moderate,2,Good,52,Moderate,8,Good,92,Moderate,32.8534876,35.1978748
Japan,Tanashi,58,Moderate,1,Good,43,Good,3,Good,58,Moderate,35.7273146,139.5394387
Romania,Tandarei,41,Good,1,Good,41,Good,0,Good,38,Good,44.6419986,27.6530653
Philippines,Tantangan,35,Good,1,Good,20,Good,0,Good,35,Good,6.6191395,124.748923
Indonesia,Tarogong,88,Moderate,2,Good,53,Moderate,1,Good,88,Moderate,-7.19468595,107.88872181641158
Turkey,Tatvan,45,Good,0,Good,45,Good,0,Good,43,Good,38.4931961,42.2878112
India,Yaval,102,Unhealthy for Sensitive Groups,1,Good,38,Good,0,Good,102,Unhealthy for Sensitive Groups,,
United Kingdom of Great Britain and Northern Ireland,Yeovil,58,Moderate,1,Good,24,Good,7,Good,58,Moderate,50.9420451,-2.6318629
China,Yuanping,143,Unhealthy for Sensitive Groups,2,Good,35,Good,5,Good,143,Unhealthy for Sensitive Groups,38.7308094,112.6994958
China,Yuncheng,187,Unhealthy,2,Good,36,Good,8,Good,187,Unhealthy,35.218039,111.053715
Poland,Zambrow,35,Good,1,Good,35,Good,0,Good,17,Good,52.975833300000005,22.23729346971591
Poland,Zamosc,48,Good,1,Good,35,Good,1,Good,48,Good,50.72124515,23.259579874645233
Belgium,Zaventem,58,Moderate,1,Good,29,Good,6,Good,58,Moderate,50.8806207,4.4730008
Belgium,Zemst,65,Moderate,1,Good,27,Good,8,Good,65,Moderate,50.9842166,4.4650814
China,Zhaozhou,73,Moderate,2,Good,66,Moderate,0,Good,73,Moderate,45.8509486,125.2870292
China,Zhicheng,160,Unhealthy,4,Good,36,Good,13,Good,160,Unhealthy,30.2956727,111.5044495
China,Zhongshan,98,Moderate,3,Good,33,Good,9,Good,98,Moderate,22.5196895,113.3870834
China,Zhuji,156,Unhealthy,4,Good,45,Good,10,Good,156,Unhealthy,29.7112121,120.2419855
Mexico,Zimatlan,75,Moderate,2,Good,9,Good,6,Good,75,Moderate,16.933056,-97.830833
Mexico,Zinacantepec,163,Unhealthy,4,Good,8,Good,18,Good,163,Unhealthy,19.20277035,-99.81352348885127
Russian Federation,Zmeinogorsk,35,Good,1,Good,35,Good,0,Good,21,Good,51.1544658,82.1979928
Netherlands,Aalburg,30,Good,0,Good,30,Good,2,Good,29,Good,51.7564268,5.1282689
Spain,Abaran,47,Good,1,Good,21,Good,2,Good,47,Good,38.2058512,-1.3971219
Italy,Abbiategrasso,69,Moderate,1,Good,37,Good,4,Good,69,Moderate,45.398733,8.9162299
Côte d'Ivoire,Abidjan,105,Unhealthy for Sensitive Groups,4,Good,15,Good,4,Good,105,Unhealthy for Sensitive Groups,5.320357,-4.016107
Mexico,Acuautla,189,Unhealthy,2,Good,9,Good,15,Good,189,Unhealthy,20.490278,-98.033611
United States of America,Acworth,64,Moderate,2,Good,37,Good,8,Good,64,Moderate,34.0659329,-84.6768796
United States of America,Adelphi,54,Moderate,1,Good,32,Good,5,Good,54,Moderate,38.9983345,-76.97074096386194
India,Afzalgarh,198,Unhealthy,4,Good,198,Unhealthy,3,Good,188,Unhealthy,29.35635105,78.72877380576698
Nigeria,Agbor,139,Unhealthy for Sensitive Groups,7,Good,13,Good,5,Good,139,Unhealthy for Sensitive Groups,6.2578135,6.182193
France,Aix En Provence,55,Moderate,1,Good,26,Good,3,Good,55,Moderate,43.5298424,5.4474738
Myanmar,Akyab,145,Unhealthy for Sensitive Groups,1,Good,46,Good,0,Good,145,Unhealthy for Sensitive Groups,20.139197,92.8970859
United States of America,Alabaster,80,Moderate,1,Good,18,Good,10,Good,80,Moderate,33.2442813,-86.8163773
Russian Federation,Alagir,50,Good,1,Good,36,Good,1,Good,50,Good,43.039841,44.220451
Belgium,Alken,35,Good,1,Good,25,Good,3,Good,35,Good,50.8754731,5.3079873
Canada,Alma,55,Moderate,1,Good,27,Good,0,Good,55,Moderate,48.548887,-71.651459
Brazil,Almirante Tamandare,13,Good,1,Good,12,Good,1,Good,13,Good,-25.3133048,-49.2997838
Spain,Almoradi,48,Good,1,Good,23,Good,3,Good,48,Good,38.1096615,-0.7919322
Papua New Guinea,Alotau,28,Good,0,Good,28,Good,0,Good,13,Good,-10.3060931,150.4464005
Germany,Altotting,50,Good,1,Good,29,Good,3,Good,50,Good,48.2268085,12.6757914
Madagascar,Ambovombe,26,Good,0,Good,26,Good,0,Good,20,Good,-25.178398,46.0877489
China,Anqiu,107,Unhealthy for Sensitive Groups,2,Good,107,Unhealthy for Sensitive Groups,5,Good,86,Moderate,36.4794705,119.2129818
Madagascar,Antalaha,22,Good,0,Good,22,Good,0,Good,20,Good,-14.9012302,50.2810433
United States of America,Antioch,76,Moderate,3,Good,7,Good,25,Good,76,Moderate,38.0049214,-121.805789
Lithuania,Anyksciai,47,Good,1,Good,32,Good,0,Good,47,Good,55.5257935,25.1061247
Ghana,Apam,104,Unhealthy for Sensitive Groups,2,Good,14,Good,1,Good,104,Unhealthy for Sensitive Groups,5.283297,-0.737975
Mexico,Apaseo El Grande,60,Moderate,1,Good,16,Good,5,Good,60,Moderate,20.591932649999997,-100.59798678636592
Brazil,Aragarcas,32,Good,1,Good,3,Good,2,Good,32,Good,-15.8957166,-52.2514538
Russian Federation,Arkadak,28,Good,1,Good,28,Good,1,Good,15,Good,51.942913,43.489098
France,Armentieres,34,Good,0,Good,28,Good,2,Good,34,Good,50.6867281,2.882169
Russian Federation,Arsk,28,Good,1,Good,28,Good,1,Good,19,Good,56.0909916,49.8771828
Azerbaijan,Artyom,48,Good,1,Good,35,Good,0,Good,48,Good,40.4591806,50.3339854
Armenia,Ashtarak,39,Good,1,Good,29,Good,1,Good,39,Good,40.2886849,44.3613061
Ethiopia,Asosa,97,Moderate,1,Good,14,Good,0,Good,97,Moderate,10.0646352,34.5437024
Iran (Islamic Republic of),Astaneh Ye Ashrafiyeh,75,Moderate,1,Good,37,Good,0,Good,75,Moderate,,
India,Atarra,194,Unhealthy,1,Good,44,Good,0,Good,194,Unhealthy,25.2589804,80.61822169835852
Guatemala,Atescatempa,104,Unhealthy for Sensitive Groups,3,Good,5,Good,10,Good,104,Unhealthy for Sensitive Groups,14.18051665,-89.71886276541588
Italy,Atri,57,Moderate,1,Good,40,Good,3,Good,57,Moderate,42.5797836,13.97535
Ukraine,Avdiyivka,41,Good,1,Good,41,Good,3,Good,27,Good,48.1338824,37.7466719
Portugal,Avintes,37,Good,1,Good,16,Good,7,Good,37,Good,41.1054014,-8.5507083
Malaysia,Ayer Keroh,59,Moderate,1,Good,34,Good,0,Good,59,Moderate,2.255986,102.2915442
United Kingdom of Great Britain and Northern Ireland,Ayr,29,Good,1,Good,29,Good,2,Good,20,Good,55.4628044,-4.6302502
Netherlands,Baarn,34,Good,0,Good,34,Good,1,Good,26,Good,52.2111182,5.2931841
Serbia,Backa Palanka,70,Moderate,1,Good,41,Good,0,Good,70,Moderate,45.2500976,19.3897302
Germany,Bad Langensalza,32,Good,0,Good,30,Good,1,Good,32,Good,51.1085823,10.6454374
Pakistan,Bahawalnagar,500,Hazardous,1,Good,38,Good,1,Good,466,Hazardous,29.9935922,73.2527621
South Africa,Balfour,380,Hazardous,31,Good,1,Good,26,Good,380,Hazardous,-26.658679,28.589806
South Africa,Ballitoville,222,Very Unhealthy,12,Good,5,Good,14,Good,222,Very Unhealthy,,
Thailand,Ban Phai,52,Moderate,0,Good,28,Good,0,Good,52,Moderate,16.0595155,102.7254663
Malaysia,Bandar Penggaram,76,Moderate,1,Good,39,Good,0,Good,76,Moderate,1.8472584,102.9346697
Philippines,Bangued,27,Good,0,Good,23,Good,0,Good,27,Good,17.5965664,120.6179987
Slovakia,Banovce,59,Moderate,1,Good,26,Good,2,Good,59,Moderate,48.7216671,18.2598263
Germany,Bargteheide,38,Good,0,Good,28,Good,2,Good,38,Good,53.7279671,10.2618075
United States of America,Bartlesville,56,Moderate,1,Good,23,Good,6,Good,56,Moderate,36.7421089,-95.9528877
Gambia,Basse,127,Unhealthy for Sensitive Groups,1,Good,18,Good,0,Good,127,Unhealthy for Sensitive Groups,13.40499765,-14.149557588647587
Pakistan,Bat Khela,117,Unhealthy for Sensitive Groups,1,Good,117,Unhealthy for Sensitive Groups,1,Good,78,Moderate,34.6134314,71.9677447
Malaysia,Batu Gajah,92,Moderate,2,Good,57,Moderate,1,Good,92,Moderate,4.4598908,101.049241
India,Bazpur,182,Unhealthy,5,Good,170,Unhealthy,5,Good,182,Unhealthy,29.1580489,79.1467418
Italy,Castel Goffredo,124,Unhealthy for Sensitive Groups,2,Good,32,Good,7,Good,124,Unhealthy for Sensitive Groups,45.2952784,10.4729815
Italy,Catanzaro,68,Moderate,2,Good,68,Moderate,6,Good,57,Moderate,38.82996034999999,16.43155687627833
Philippines,Catbalogan,68,Moderate,1,Good,26,Good,0,Good,68,Moderate,11.7753199,124.8829549
Ecuador,Cayambe,39,Good,1,Good,4,Good,2,Good,39,Good,0.0251586,-77.9889555
Bosnia and Herzegovina,Cazin,50,Good,1,Good,33,Good,0,Good,50,Good,44.9665331,15.9422967
Italy,Cernusco Sul Naviglio,103,Unhealthy for Sensitive Groups,1,Good,33,Good,6,Good,103,Unhealthy for Sensitive Groups,45.5245578,9.330925
Italy,Cesenatico,38,Good,1,Good,36,Good,5,Good,38,Good,44.1999283,12.3969692
Czechia,Ceske Budejovice,61,Moderate,1,Good,38,Good,1,Good,61,Moderate,48.9747357,14.474285
Argentina,Chacabuco,17,Good,0,Good,17,Good,1,Good,17,Good,-32.7414522,-65.2061252386066
Peru,Chachapoyas,21,Good,0,Good,4,Good,0,Good,21,Good,-6.3718272,-77.8093378
France,Chalon Sur Saone,32,Good,1,Good,32,Good,1,Good,20,Good,46.7831001,4.8534326
China,Chaoyang,151,Unhealthy,3,Good,119,Unhealthy for Sensitive Groups,1,Good,151,Unhealthy,41.5754767,120.4390738
Viet Nam,Chau Doc,57,Moderate,1,Good,32,Good,0,Good,57,Moderate,10.7101815,105.1188675
Russian Federation,Cherepanovo,38,Good,1,Good,38,Good,0,Good,35,Good,54.226101,83.370468
Russian Federation,Cherkessk,49,Good,1,Good,40,Good,0,Good,49,Good,44.2285229,42.048257
India,Chhabra,171,Unhealthy,1,Good,42,Good,0,Good,171,Unhealthy,22.2518168,78.50808279107514
India,Chilakalurupet,91,Moderate,1,Good,28,Good,1,Good,91,Moderate,,
Mexico,Chilpancingo,72,Moderate,2,Good,4,Good,5,Good,72,Moderate,19.4059029,-99.1685264
India,Chipurupalle,153,Unhealthy,2,Good,22,Good,6,Good,153,Unhealthy,18.3120723,83.5686458
Poland,Chojnow,59,Moderate,1,Good,25,Good,2,Good,59,Moderate,51.2722894,15.9335241
India,Chotila,157,Unhealthy,0,Good,31,Good,1,Good,157,Unhealthy,22.4243903,71.1992399
United States of America,Cimarron Hills,73,Moderate,1,Good,32,Good,2,Good,73,Moderate,38.8586088,-104.698864
Brazil,Claudio,71,Moderate,2,Good,3,Good,6,Good,71,Moderate,-20.4448485,-44.7655217
Brazil,Clevelandia,17,Good,0,Good,17,Good,0,Good,11,Good,-26.404065,-52.3513972
Brazil,Coari,46,Good,1,Good,2,Good,0,Good,46,Good,-4.0885957,-63.1431166
United Kingdom of Great Britain and Northern Ireland,Coatbridge,35,Good,1,Good,12,Good,9,Good,35,Good,55.8622848,-4.0273166
Ireland,Cobh,24,Good,0,Good,24,Good,1,Good,16,Good,51.8500947,-8.294279
Brazil,Colatina,45,Good,1,Good,14,Good,2,Good,45,Good,-19.5346732,-40.6287836
Romania,Comanesti,61,Moderate,1,Good,40,Good,0,Good,61,Moderate,46.4216579,26.438008
Dominican Republic,Comendador,65,Moderate,1,Good,12,Good,6,Good,65,Moderate,18.8766978,-71.7050752
Italy,Como,112,Unhealthy for Sensitive Groups,1,Good,34,Good,4,Good,112,Unhealthy for Sensitive Groups,45.939475900000005,9.149410132545793
Brazil,Conde,19,Good,0,Good,19,Good,0,Good,11,Good,-11.8129758,-37.6138705
United Kingdom of Great Britain and Northern Ireland,Consett,31,Good,0,Good,31,Good,2,Good,22,Good,54.8518781,-1.8333741
United States of America,Cooper City,152,Unhealthy,4,Good,4,Good,19,Good,152,Unhealthy,26.057783,-80.2695109
United States of America,Copperas Cove,31,Good,1,Good,21,Good,1,Good,31,Good,31.124062,-97.9030785
Brazil,Cornelio Procopio,37,Good,1,Good,12,Good,1,Good,37,Good,-23.1825218,-50.6499263
Argentina,Corrientes,13,Good,1,Good,12,Good,0,Good,13,Good,-28.99565115,-57.81245796667342
Mexico,Cotija,41,Good,1,Good,8,Good,3,Good,41,Good,19.7512889,-102.69290438898004
Italy,Crevalcore,103,Unhealthy for Sensitive Groups,2,Good,28,Good,9,Good,103,Unhealthy for Sensitive Groups,44.72057,11.149804
Azerbaijan,Culfa,52,Moderate,1,Good,35,Good,0,Good,52,Moderate,39.14114205,45.69497116566704
Spain,Culleredo,30,Good,0,Good,30,Good,2,Good,13,Good,43.2884816,-8.3894589
India,Cuncolim,73,Moderate,0,Good,25,Good,0,Good,73,Moderate,15.1797104,73.9976262
Brazil,Curvelo,42,Good,1,Good,2,Good,4,Good,42,Good,-18.7571926,-44.4305993
Germany,Cuxhaven,35,Good,0,Good,35,Good,0,Good,30,Good,53.86878,8.698286
United States of America,Cypress Lake,46,Good,1,Good,25,Good,5,Good,46,Good,26.53860815,-81.90177188954416
Poland,Czestochowa,93,Moderate,1,Good,27,Good,4,Good,93,Moderate,50.8089997,19.1244089281233
Guinea,Dalaba,63,Moderate,2,Good,13,Good,0,Good,63,Moderate,10.6911854,-12.2516243
Pakistan,Dalbandin,160,Unhealthy,0,Good,39,Good,0,Good,160,Unhealthy,28.8963483,64.4097124
France,Beaune,39,Good,1,Good,26,Good,1,Good,39,Good,47.0239064,4.8380426
United States of America,Bedford,56,Moderate,1,Good,18,Good,6,Good,56,Moderate,40.0271453,-78.5237447
Ghana,Begoro,105,Unhealthy for Sensitive Groups,2,Good,13,Good,2,Good,105,Unhealthy for Sensitive Groups,6.38479,-0.376333
China,Beipiao,93,Moderate,2,Good,90,Moderate,1,Good,93,Moderate,41.8000713,120.7655332
Brazil,Bela Cruz,45,Good,0,Good,22,Good,0,Good,45,Good,-3.0529129,-40.167582
Bolivia (Plurinational State of),Bermejo,54,Moderate,1,Good,8,Good,1,Good,54,Moderate,,
Germany,Bernburg,36,Good,0,Good,29,Good,2,Good,36,Good,51.7930788,11.7391606
United States of America,Berwick,50,Good,1,Good,35,Good,5,Good,50,Good,41.0602024,-76.2461259
India,Betma,153,Unhealthy,1,Good,34,Good,0,Good,153,Unhealthy,22.6875139,75.6116714
United States of America,Beverly,48,Good,1,Good,36,Good,5,Good,48,Good,42.5489744,-70.8781883
Russian Federation,Bezhetsk,24,Good,0,Good,24,Good,0,Good,24,Good,57.781357,36.692535
Bangladesh,Bhairab Bazar,132,Unhealthy for Sensitive Groups,3,Good,44,Good,4,Good,132,Unhealthy for Sensitive Groups,24.0511302,90.8700871
Pakistan,Bhalwal,179,Unhealthy,3,Good,179,Unhealthy,2,Good,166,Unhealthy,32.2710743,72.896564
India,Bhimavaram,124,Unhealthy for Sensitive Groups,1,Good,36,Good,1,Good,124,Unhealthy for Sensitive Groups,16.5427689,81.527344
India,Bhinmal,202,Very Unhealthy,0,Good,34,Good,0,Good,202,Very Unhealthy,25.0071053,72.2653077
India,Bhiwandi,151,Unhealthy,1,Good,26,Good,1,Good,151,Unhealthy,19.3025562,73.0588072
Indonesia,Binjai,92,Moderate,2,Good,45,Good,0,Good,92,Moderate,3.6063964,98.4899865
Brazil,Baiao,39,Good,1,Good,5,Good,0,Good,39,Good,-2.7903479,-49.6702845
Russian Federation,Baksan,48,Good,1,Good,39,Good,1,Good,48,Good,43.6820626,43.5344319
Sudan,Bara,52,Moderate,2,Good,17,Good,0,Good,52,Moderate,13.1827361,22.2752059
Colombia,Baranoa,104,Unhealthy for Sensitive Groups,1,Good,16,Good,2,Good,104,Unhealthy for Sensitive Groups,10.7935815,-74.9152164
Philippines,Baras,51,Moderate,1,Good,27,Good,1,Good,51,Moderate,14.5218512,121.2658068
Iran (Islamic Republic of),Bardsir,91,Moderate,1,Good,49,Good,0,Good,91,Moderate,,
India,Bari Sadri,167,Unhealthy,1,Good,32,Good,0,Good,167,Unhealthy,24.4155188,74.4751013
Thailand,Nong Bua,38,Good,0,Good,20,Good,0,Good,38,Good,15.8660082,100.58269
Thailand,Nong Han,57,Moderate,0,Good,25,Good,0,Good,57,Moderate,18.9493272,98.9829111
Netherlands,Noordwijkerhout,41,Good,1,Good,27,Good,5,Good,41,Good,52.2629093,4.490519
United States of America,North Andrews Gardens,78,Moderate,1,Good,11,Good,12,Good,78,Moderate,26.1914725,-80.1442118
United States of America,Northbridge,47,Good,1,Good,46,Good,2,Good,47,Good,42.154464,-71.651881
United Kingdom of Great Britain and Northern Ireland,Norwich,29,Good,0,Good,29,Good,3,Good,18,Good,52.6285576,1.2923954
Serbia,Novi Becej,60,Moderate,1,Good,34,Good,1,Good,60,Moderate,45.5952571,20.1343581
Netherlands,Nuenen,37,Good,1,Good,32,Good,3,Good,37,Good,51.48603,5.544006988824241
Chile,Nueva Imperial,61,Moderate,2,Good,2,Good,9,Good,61,Moderate,-38.7453101,-72.9519984
Panama,Nuevo Arraijan,67,Moderate,2,Good,20,Good,5,Good,67,Moderate,8.9260464,-79.7211543
Mexico,Nuevo Casas Grandes,46,Good,1,Good,17,Good,2,Good,46,Good,30.50629595,-107.66542559561371
United States of America,Oak Lawn,79,Moderate,2,Good,13,Good,27,Good,79,Moderate,41.7108662,-87.7581081
United States of America,Oakdale,53,Moderate,1,Good,24,Good,9,Good,53,Moderate,44.985624,-92.9645794
Ghana,Obuasi,81,Moderate,1,Good,18,Good,0,Good,81,Moderate,6.211542,-1.6894045
Japan,Odawara,39,Good,1,Good,38,Good,2,Good,39,Good,35.2645301,139.152246
Germany,Oer Erkenschwick,34,Good,1,Good,34,Good,2,Good,27,Good,51.6398512,7.2605914
Republic of North Macedonia,Ohrid,42,Good,1,Good,41,Good,0,Good,42,Good,41.1170203,20.8017715
Japan,Okawa,41,Good,2,Good,36,Good,5,Good,41,Good,33.2061857,130.3835746
Poland,Olecko,47,Good,1,Good,36,Good,0,Good,47,Good,54.0398024,22.4934246
Germany,Olfen,32,Good,1,Good,27,Good,4,Good,32,Good,51.7076224,7.3788047
Brazil,Olindina,25,Good,0,Good,6,Good,1,Good,25,Good,-11.3601309,-38.3269571
Japan,Omagari,35,Good,1,Good,35,Good,0,Good,15,Good,39.4656823,140.479891
Netherlands,Oostburg,36,Good,1,Good,26,Good,3,Good,36,Good,51.3271917,3.4895533
United States of America,Orem,73,Moderate,2,Good,26,Good,7,Good,73,Moderate,40.2981599,-111.6944313
United States of America,Orinda,52,Moderate,1,Good,22,Good,11,Good,52,Moderate,37.8771476,-122.1796888
Poland,Ostrzeszow,35,Good,1,Good,32,Good,1,Good,35,Good,51.4257664,17.9331788
Guatemala,Ostuncalco,94,Moderate,3,Good,9,Good,11,Good,94,Moderate,14.8688919,-91.6217901
Congo,Ouesso,71,Moderate,3,Good,18,Good,0,Good,71,Moderate,1.6105452,16.0513456
Brazil,Ouro Preto,61,Moderate,2,Good,3,Good,5,Good,61,Moderate,-20.385527,-43.5035214
Nigeria,Oyo,80,Moderate,2,Good,22,Good,1,Good,80,Moderate,8.2151249,3.5642897
Kyrgyzstan,Ozgon,101,Unhealthy for Sensitive Groups,1,Good,60,Moderate,0,Good,101,Unhealthy for Sensitive Groups,40.7707645,73.2978049
Italy,Pachino,48,Good,1,Good,45,Good,0,Good,48,Good,36.715162,15.0913888
India,Padra,156,Unhealthy,1,Good,33,Good,0,Good,156,Unhealthy,22.2412214,73.0855259
Mauritius,Pailles,30,Good,0,Good,28,Good,0,Good,30,Good,-20.1886169,57.4919856
France,Paita,27,Good,0,Good,27,Good,0,Good,10,Good,-22.1311499,166.3678601
India,Palakkodu,57,Moderate,0,Good,30,Good,0,Good,57,Moderate,12.2970222,78.0716779
Philippines,Palo,55,Moderate,1,Good,20,Good,0,Good,55,Moderate,11.159448,124.9908138
Indonesia,Pamekasan,54,Moderate,1,Good,35,Good,0,Good,54,Moderate,-7.1605439,113.4826273
China,Panchiao,69,Moderate,1,Good,45,Good,4,Good,69,Moderate,,
China,Panshi,76,Moderate,3,Good,32,Good,2,Good,76,Moderate,43.070278,126.148056
China,Panzhihua,74,Moderate,3,Good,29,Good,2,Good,74,Moderate,26.5860102,101.7179276
Brazil,Paragominas,36,Good,1,Good,2,Good,0,Good,36,Good,-2.99564,-47.3548942
Brazil,Paraguacu,51,Moderate,1,Good,7,Good,4,Good,51,Moderate,-21.547222,-45.7375
Peru,Paramonga,41,Good,1,Good,18,Good,1,Good,41,Good,-10.6751894,-77.8185202
United States of America,Parkville,56,Moderate,1,Good,44,Good,4,Good,56,Moderate,39.3868522,-76.55086176363942
United States of America,Pasadena,58,Moderate,1,Good,43,Good,5,Good,58,Moderate,34.1476507,-118.144155
United States of America,Pataskala,45,Good,1,Good,32,Good,7,Good,45,Good,39.9955726,-82.6742373
Kazakhstan,Pavlodar,50,Good,1,Good,41,Good,0,Good,50,Good,51.8111545,76.4285287
India,Payyannur,68,Moderate,0,Good,24,Good,0,Good,68,Moderate,12.151187700000001,75.25602904352965
United States of America,Pelham,46,Good,1,Good,46,Good,2,Good,31,Good,40.9098215,-73.8079111
Greece,Perama,67,Moderate,1,Good,44,Good,2,Good,67,Moderate,37.9662294,23.5691709
Mexico,Perote,77,Moderate,3,Good,7,Good,8,Good,77,Moderate,19.510864050000002,-97.26853448069734
Serbia,Petrovaradin,63,Moderate,1,Good,33,Good,1,Good,63,Moderate,45.2426175,19.8820073
Thailand,Phanom Thuan,42,Good,0,Good,19,Good,0,Good,42,Good,14.129361,99.6998199
Thailand,Phatthalung,59,Moderate,1,Good,27,Good,0,Good,59,Moderate,7.543525,99.9971582
Thailand,Phetchaburi,35,Good,0,Good,17,Good,0,Good,35,Good,13.0692869,99.6044376
India,Phillaur,444,Hazardous,2,Good,111,Unhealthy for Sensitive Groups,1,Good,391,Hazardous,31.018294,75.7839116
Egypt,Rosetta,60,Moderate,2,Good,60,Moderate,3,Good,55,Moderate,31.4013811,30.418428
Italy,Rossano,48,Good,1,Good,48,Good,0,Good,12,Good,39.575017,16.6333385
Russian Federation,Rostov,32,Good,1,Good,32,Good,0,Good,26,Good,47.2216548,39.7096061
United Kingdom of Great Britain and Northern Ireland,Royton,56,Moderate,0,Good,32,Good,1,Good,56,Moderate,53.5652485,-2.1236085
Germany,Rudolstadt,32,Good,1,Good,32,Good,1,Good,30,Good,50.7206063,11.3401985
Czechia,Rumburk,29,Good,0,Good,29,Good,2,Good,29,Good,50.9517739,14.5569317
Malawi,Rumphi,28,Good,0,Good,19,Good,0,Good,28,Good,-10.790932649999998,33.85071177603609
Switzerland,Ruti,34,Good,1,Good,25,Good,2,Good,34,Good,47.2579312,8.852696
Brazil,Ruy Barbosa,18,Good,0,Good,8,Good,0,Good,18,Good,-12.2856669,-40.4958361
Serbia,Sabac,68,Moderate,1,Good,32,Good,1,Good,68,Moderate,44.7571535,19.6953972
Cuba,Sagua La Grande,89,Moderate,1,Good,22,Good,1,Good,89,Moderate,22.8059845,-80.0720021
India,Sahibganj,208,Very Unhealthy,3,Good,152,Unhealthy,1,Good,208,Very Unhealthy,25.032043700000003,87.69176396030268
United States of America,Saint Matthews,58,Moderate,2,Good,29,Good,12,Good,58,Moderate,33.664876,-80.7778681
United States of America,Saint Pete Beach,53,Moderate,1,Good,40,Good,6,Good,53,Moderate,27.7253065,-82.741212
Canada,Saint Thomas,35,Good,1,Good,35,Good,3,Good,34,Good,46.0138485,-73.3508635
France,Saint Cyr Sur Loire,37,Good,1,Good,25,Good,2,Good,37,Good,47.4052448,0.6658199
Belgium,Saint Nicolas,35,Good,1,Good,32,Good,3,Good,35,Good,51.1646685,4.1395124
France,Saint Quentin,39,Good,1,Good,25,Good,2,Good,39,Good,49.8465253,3.2876843
Saudi Arabia,Sakakah,122,Unhealthy for Sensitive Groups,1,Good,49,Good,0,Good,122,Unhealthy for Sensitive Groups,29.9784008,40.2047701
Japan,Sakurai,40,Good,1,Good,40,Good,2,Good,34,Good,34.5186316,135.8434724
United Kingdom of Great Britain and Northern Ireland,Salford,58,Moderate,0,Good,32,Good,1,Good,58,Moderate,53.4877463,-2.2891921
India,Salon,303,Hazardous,1,Good,48,Good,0,Good,260,Very Unhealthy,26.088814999999997,81.45337412154478
Brazil,Salvador,30,Good,0,Good,16,Good,1,Good,30,Good,-12.9822499,-38.4812772
India,Sambhar,193,Unhealthy,0,Good,38,Good,0,Good,193,Unhealthy,26.9110014,75.1848367
Turkey,Samsun,36,Good,1,Good,36,Good,0,Good,30,Good,41.2303557,35.9683338
Indonesia,Prabumulih,49,Good,1,Good,30,Good,0,Good,49,Good,-3.4382688,104.2310181
Brazil,Presidente Prudente,32,Good,1,Good,14,Good,1,Good,32,Good,-22.1225167,-51.3882528
United States of America,Prichard,28,Good,1,Good,22,Good,4,Good,28,Good,30.7387998,-88.0788889
Canada,Prince George,21,Good,1,Good,21,Good,1,Good,13,Good,53.9128645,-122.7453699
Indonesia,Pringsewu,63,Moderate,2,Good,40,Good,0,Good,63,Moderate,-5.36668925,104.97221206481078
Peru,Pucallpa,30,Good,1,Good,1,Good,0,Good,30,Good,-8.3820737,-74.5387507
Spain,Puertollano,32,Good,1,Good,30,Good,1,Good,32,Good,38.6852161,-4.1111749
Mexico,Purepero,48,Good,1,Good,5,Good,4,Good,48,Good,19.910552850000002,-102.01053327778646
Israel,Qiryat Gat,80,Moderate,1,Good,62,Moderate,4,Good,80,Moderate,31.6093998,34.7711983
Chile,Quillota,182,Unhealthy,14,Good,1,Good,23,Good,182,Unhealthy,-32.879997,-71.2473555
India,Rafiganj,356,Hazardous,1,Good,60,Moderate,0,Good,284,Very Unhealthy,24.8366485,84.59255545180909
United States of America,Rahway,62,Moderate,1,Good,44,Good,5,Good,62,Moderate,40.6081591,-74.2776468
Bangladesh,Rajshahi,191,Unhealthy,2,Good,133,Unhealthy for Sensitive Groups,2,Good,191,Unhealthy,24.6285432,89.0376862
India,Rajur,150,Unhealthy,1,Good,41,Good,0,Good,150,Unhealthy,20.60166485,76.17499728927316
Thailand,Phrai Bung,53,Moderate,0,Good,27,Good,0,Good,53,Moderate,15.24700675,104.84934569093464
India,Phulpur,226,Very Unhealthy,1,Good,48,Good,1,Good,226,Very Unhealthy,26.0362585,82.79853154645647
Brazil,Picos,16,Good,0,Good,12,Good,0,Good,16,Good,-7.0823544,-41.4685053
Finland,Pietarsaari,34,Good,1,Good,34,Good,1,Good,17,Good,63.6744703,22.7055385
Germany,Pirmasens,30,Good,1,Good,27,Good,2,Good,30,Good,49.1996961,7.6087847
United States of America,Plum,55,Moderate,2,Good,26,Good,12,Good,55,Moderate,40.5003457,-79.7494911
Benin,Pobe,73,Moderate,1,Good,20,Good,1,Good,73,Moderate,6.9820238,2.666791
Italy,Policoro,46,Good,1,Good,46,Good,0,Good,14,Good,40.2104595,16.6763759
Sierra Leone,Port Loko,48,Good,1,Good,16,Good,0,Good,48,Good,8.7643754,-12.7819558
Haiti,Port De Paix,103,Unhealthy for Sensitive Groups,1,Good,25,Good,1,Good,103,Unhealthy for Sensitive Groups,19.9389855,-72.8308129
Portugal,Porto Salvo,46,Good,0,Good,30,Good,2,Good,46,Good,38.72939675,-9.303614920918243
United States of America,Poughkeepsie,43,Good,1,Good,43,Good,2,Good,39,Good,41.7065539,-73.9283672
United States of America,Randallstown,52,Moderate,1,Good,44,Good,4,Good,52,Moderate,39.36907005,-76.79586413775866
India,Rania,500,Hazardous,1,Good,40,Good,0,Good,464,Hazardous,29.569683599999998,74.7337535170843
Thailand,Ranong,36,Good,0,Good,16,Good,0,Good,36,Good,10.0469546,98.6870133
Germany,Rathenow,39,Good,0,Good,39,Good,0,Good,23,Good,52.6063703,12.3382259
Russian Federation,Reutov,58,Moderate,1,Good,25,Good,9,Good,58,Moderate,55.7637361,37.862538689546184
Brazil,Ribeira Do Pombal,24,Good,0,Good,7,Good,1,Good,24,Good,-10.837299,-38.538152
Brazil,Ribeirao Bonito,52,Moderate,1,Good,4,Good,3,Good,52,Moderate,-22.0692867,-48.1781765
United States of America,Richardson,56,Moderate,1,Good,21,Good,6,Good,56,Moderate,40.1194651,-95.7607517
United States of America,Richmond,76,Moderate,2,Good,15,Good,17,Good,76,Moderate,37.5385087,-77.43428
Brazil,Rio Bonito,95,Moderate,3,Good,23,Good,8,Good,95,Moderate,-22.7108378,-42.6271864
Peru,Rioja,25,Good,1,Good,3,Good,0,Good,25,Good,-5.8797993,-77.4276533
France,Riom,40,Good,1,Good,30,Good,1,Good,40,Good,45.893068,3.1136667
Lebanon,Riyaq,78,Moderate,1,Good,46,Good,1,Good,78,Moderate,,
Italy,Rocca Priora,47,Good,1,Good,47,Good,2,Good,27,Good,41.7910922,12.7619973
France,Rodez,42,Good,1,Good,31,Good,1,Good,42,Good,44.3511408,2.5728493
Brazil,Rolandia,39,Good,1,Good,14,Good,2,Good,39,Good,-23.3119901,-51.3674145
France,Romans Sur Isere,37,Good,1,Good,30,Good,1,Good,37,Good,45.0458886,5.0528681
Philippines,Romblon,50,Good,1,Good,23,Good,0,Good,50,Good,12.5,122.2
India,Dalmau,190,Unhealthy,2,Good,98,Moderate,1,Good,190,Unhealthy,26.0940967,81.09356974988287
United States of America,Daly City,62,Moderate,1,Good,18,Good,13,Good,62,Moderate,37.6904826,-122.47267
India,Damnagar,152,Unhealthy,0,Good,29,Good,0,Good,152,Unhealthy,22.1453429,69.3467448
Thailand,Dan Khun Thot,56,Moderate,1,Good,31,Good,0,Good,56,Moderate,15.2087873,101.7688474
China,Dancheng,145,Unhealthy for Sensitive Groups,2,Good,145,Unhealthy for Sensitive Groups,3,Good,82,Moderate,33.6406649,115.1943501
India,Dankaur,292,Very Unhealthy,3,Good,136,Unhealthy for Sensitive Groups,3,Good,292,Very Unhealthy,28.3501722,77.5533115
United Republic of Tanzania,Dareda,20,Good,0,Good,14,Good,0,Good,20,Good,-4.22036,35.560008
India,Dattapur,153,Unhealthy,0,Good,29,Good,0,Good,153,Unhealthy,20.5265922,76.09337433543091
Brazil,Delmiro Gouveia,25,Good,0,Good,9,Good,1,Good,25,Good,-9.3841161,-37.997756
Uruguay,Delta Del Tigre,38,Good,1,Good,19,Good,2,Good,38,Good,-34.7638129,-56.365268
India,Delvada,158,Unhealthy,0,Good,25,Good,0,Good,158,Unhealthy,20.7735574,71.0418496
Russian Federation,Desnogorsk,34,Good,1,Good,34,Good,0,Good,10,Good,54.1516661,33.2881028
Turkey,Develi,46,Good,1,Good,29,Good,0,Good,46,Good,38.2033019,27.1666844
India,Dewa,173,Unhealthy,3,Good,159,Unhealthy,1,Good,173,Unhealthy,27.0355897,81.1672167
Turkey,Dinar,44,Good,1,Good,33,Good,0,Good,44,Good,38.0655907,30.1563634
Ukraine,Dniprorudne,39,Good,1,Good,39,Good,0,Good,12,Good,47.3899205,35.0028481
Benin,Dogbo,101,Unhealthy for Sensitive Groups,3,Good,18,Good,2,Good,101,Unhealthy for Sensitive Groups,6.801846,1.7815205
Russian Federation,Donskoye,37,Good,1,Good,37,Good,0,Good,30,Good,52.615471,38.975815
United States of America,Dumas,60,Moderate,1,Good,22,Good,3,Good,60,Moderate,35.8630199,-101.9663192
United Republic of Tanzania,Dunda,23,Good,0,Good,17,Good,0,Good,23,Good,-6.7850311612504735,39.22907539114551
United States of America,Dyersburg,93,Moderate,1,Good,24,Good,5,Good,93,Moderate,36.0346393,-89.3857496
United States of America,Eatontown,28,Good,1,Good,28,Good,8,Good,25,Good,40.2962222,-74.0509725
Mexico,Ebano,91,Moderate,2,Good,22,Good,3,Good,91,Moderate,22.16836795,-98.44427525463897
United States of America,El Campo,39,Good,1,Good,22,Good,1,Good,39,Good,29.1966405,-96.2696867
Mexico,El Pueblito,66,Moderate,1,Good,10,Good,5,Good,66,Moderate,20.5397943,-100.4410725
Bolivia (Plurinational State of),El Torno,6,Good,0,Good,5,Good,0,Good,6,Good,,
United States of America,Ellicott City,44,Good,1,Good,27,Good,10,Good,44,Good,39.275735850000004,-76.831741741596
Pakistan,Eminabad,153,Unhealthy,3,Good,153,Unhealthy,1,Good,152,Unhealthy,32.0419786,74.2601469
Japan,Ena,42,Good,1,Good,42,Good,0,Good,12,Good,35.4492674,137.412703
Italy,Giussano,62,Moderate,1,Good,32,Good,4,Good,62,Moderate,45.6993814,9.2097294
United Kingdom of Great Britain and Northern Ireland,Glenrothes,35,Good,1,Good,22,Good,6,Good,35,Good,56.1961905,-3.1716324
United Kingdom of Great Britain and Northern Ireland,Glossop,27,Good,1,Good,25,Good,3,Good,27,Good,53.4433552,-1.9499173
Namibia,Gobabis,19,Good,0,Good,18,Good,0,Good,19,Good,-22.4495283,18.9724666
India,Gobindapur,198,Unhealthy,3,Good,91,Moderate,3,Good,198,Unhealthy,22.2288989,88.4189556
India,Gobindpur,175,Unhealthy,1,Good,51,Moderate,1,Good,175,Unhealthy,23.87369245,86.46739613222111
Spain,Godella,33,Good,1,Good,33,Good,1,Good,28,Good,39.5184276,-0.4103168
India,Gohad,194,Unhealthy,1,Good,46,Good,0,Good,194,Unhealthy,26.41059725,78.44569960925098
India,Gohana,500,Hazardous,1,Good,47,Good,1,Good,500,Hazardous,29.118940549999998,76.67054430183177
Brazil,Goiatuba,37,Good,1,Good,3,Good,3,Good,37,Good,-18.0154577,-49.3640591
Netherlands,Goirle,30,Good,0,Good,30,Good,2,Good,27,Good,51.5056266,5.033774070783131
United States of America,Golden Glades,61,Moderate,1,Good,10,Good,16,Good,61,Moderate,25.9105056,-80.20526871138793
Poland,Goleniow,32,Good,1,Good,24,Good,3,Good,32,Good,53.5656939,14.8299285
Iran (Islamic Republic of),Gonbad E Qabus,84,Moderate,1,Good,45,Good,0,Good,84,Moderate,,
Russian Federation,Gorodishche,33,Good,1,Good,33,Good,1,Good,21,Good,61.4917743,42.4702157
Japan,Gotsu,44,Good,1,Good,44,Good,0,Good,15,Good,35.0111168,132.2213266
Albania,Gramsh,68,Moderate,1,Good,39,Good,1,Good,68,Moderate,40.8654273,20.1864495
United States of America,Granger,57,Moderate,2,Good,21,Good,11,Good,57,Moderate,41.7610984,-93.8243925
United States of America,Grants Pass,29,Good,1,Good,29,Good,2,Good,27,Good,42.4393707,-123.3272489
,Granville,30,Good,1,Good,30,Good,3,Good,25,Good,-33.8345097,151.0060111
Mexico,Guasave,35,Good,1,Good,22,Good,1,Good,35,Good,25.5046381,-108.539960314508
Germany,Guben,37,Good,1,Good,21,Good,4,Good,37,Good,51.9503235,14.7153567
Cameroon,Guider,76,Moderate,3,Good,8,Good,1,Good,76,Moderate,9.9302531,13.9467554
China,Guilin,90,Moderate,3,Good,46,Good,3,Good,90,Moderate,25.2779894,110.2910622
France,Guipavas,34,Good,1,Good,26,Good,9,Good,34,Good,48.4346366,-4.400979
United States of America,Fort Walton Beach,65,Moderate,1,Good,30,Good,1,Good,65,Moderate,30.4057552,-86.618842
France,Fosses,29,Good,0,Good,28,Good,2,Good,29,Good,49.0986649,2.5161998
United States of America,Fountain Hills,37,Good,1,Good,27,Good,8,Good,37,Good,33.6117105,-111.717361
United States of America,Fountain,72,Moderate,1,Good,29,Good,3,Good,72,Moderate,40.125252,-87.2497418
Brazil,Francisco Morato,169,Unhealthy,7,Good,0,Good,21,Good,169,Unhealthy,-23.2817308,-46.7448996
Germany,Freiberg,36,Good,1,Good,25,Good,3,Good,36,Good,50.9169415,13.3428889
United States of America,Front Royal,46,Good,1,Good,37,Good,2,Good,46,Good,38.9178538,-78.1917718
Japan,Fuchu,71,Moderate,1,Good,71,Moderate,3,Good,49,Good,35.6693751,139.4774094
Germany,Gaggenau,29,Good,0,Good,29,Good,2,Good,26,Good,48.8030291,8.3201799
Israel,Gan Yavne,77,Moderate,1,Good,43,Good,6,Good,77,Moderate,31.787109,34.7096635
India,Gauribidanur,48,Good,0,Good,24,Good,0,Good,48,Good,13.6134495,77.5131354
Spain,Gava,57,Moderate,1,Good,19,Good,10,Good,57,Moderate,41.3050933,2.0063126
Italy,Gela,53,Moderate,1,Good,38,Good,2,Good,53,Moderate,37.0664363,14.2502445
Netherlands,Gennep,30,Good,0,Good,25,Good,3,Good,30,Good,51.6950839,5.9734549
Germany,Genthin,31,Good,0,Good,30,Good,1,Good,31,Good,52.4063738,12.1561742
Guyana,Georgetown,27,Good,0,Good,19,Good,0,Good,27,Good,6.8137426,-58.1624465
Germany,Gera,30,Good,0,Good,28,Good,2,Good,30,Good,50.8765537,12.0832666
India,Gevrai,120,Unhealthy for Sensitive Groups,1,Good,30,Good,0,Good,120,Unhealthy for Sensitive Groups,19.6281577,76.3786697
United States of America,Lake Jackson,25,Good,0,Good,24,Good,2,Good,25,Good,29.0338575,-95.4343859
United States of America,Lakeside,57,Moderate,2,Good,22,Good,14,Good,57,Moderate,32.850319400000004,-116.89600836391115
Thailand,Lam Luk Ka,66,Moderate,1,Good,28,Good,1,Good,66,Moderate,13.992705749999999,100.80806173426596
Philippines,Lamacan,70,Moderate,1,Good,21,Good,0,Good,70,Moderate,10.0273053,123.5974645
Iran (Islamic Republic of),Lar,105,Unhealthy for Sensitive Groups,1,Good,49,Good,0,Good,105,Unhealthy for Sensitive Groups,,
Brazil,Laranjeiras Do Sul,12,Good,1,Good,12,Good,0,Good,11,Good,-25.4073197,-52.4150132
China,Lasa,25,Good,0,Good,25,Good,0,Good,12,Good,29.6542054,91.1173015
India,Lasalgaon,129,Unhealthy for Sensitive Groups,0,Good,30,Good,0,Good,129,Unhealthy for Sensitive Groups,20.1426837,74.2377507
Germany,Lauda Konigshofen,32,Good,1,Good,27,Good,3,Good,32,Good,49.5577854,9.7190669
France,Le Port,42,Good,1,Good,28,Good,0,Good,42,Good,42.8662832,1.3740316
Brazil,Lencois Paulista,34,Good,1,Good,13,Good,1,Good,34,Good,-22.6029897,-48.8031367
Colombia,Lerida,60,Moderate,2,Good,8,Good,4,Good,60,Moderate,4.8609666,-74.9109405
Netherlands,Leusden,33,Good,0,Good,33,Good,1,Good,26,Good,52.130355,5.4286989
United Kingdom of Great Britain and Northern Ireland,Lewes,37,Good,1,Good,12,Good,13,Good,37,Good,50.8746139,0.005115324110936268
Philippines,Lianga,50,Good,1,Good,20,Good,0,Good,50,Good,8.6330237,126.0934758
France,Libourne,46,Good,1,Good,26,Good,2,Good,46,Good,44.9133742,-0.2427217
Germany,Limbach Oberfrohna,31,Good,0,Good,28,Good,1,Good,31,Good,50.8608138,12.7545462
Malaysia,Limbang,95,Moderate,9,Good,95,Moderate,0,Good,46,Good,4.3519985,115.06024165665087
China,Lishan,192,Unhealthy,4,Good,192,Unhealthy,6,Good,124,Unhealthy for Sensitive Groups,41.1452706,123.0206182
Czechia,Litovel,49,Good,1,Good,24,Good,2,Good,49,Good,49.7013305,17.0758784
Belgium,Lokeren,31,Good,0,Good,31,Good,2,Good,31,Good,51.1044488,3.9898689
Belgium,Londerzeel,34,Good,0,Good,29,Good,3,Good,34,Good,51.0021194,4.3028049
Netherlands,Loon Op Zand,32,Good,0,Good,27,Good,3,Good,32,Good,51.641135750000004,5.048667555713678
Congo,Loubomo,100,Unhealthy for Sensitive Groups,1,Good,16,Good,0,Good,100,Unhealthy for Sensitive Groups,-4.2005398,12.6791573
Senegal,Louga,176,Unhealthy,2,Good,21,Good,3,Good,176,Unhealthy,15.39668845,-15.677928277161907
Poland,Lubin,35,Good,1,Good,20,Good,3,Good,35,Good,51.399678300000005,16.1993379441299
Poland,Lublin,32,Good,1,Good,32,Good,1,Good,28,Good,51.218194499999996,22.554677562145155
Indonesia,Lubuk Pakam,98,Moderate,2,Good,47,Good,0,Good,98,Moderate,3.5603701,98.8766933
Philippines,Lucena,32,Good,1,Good,29,Good,0,Good,32,Good,13.9358509,121.6130954
India,Lunavada,164,Unhealthy,1,Good,35,Good,0,Good,164,Unhealthy,23.1290668,73.611114
Ukraine,Lvov,61,Moderate,1,Good,29,Good,1,Good,61,Moderate,49.841952,24.0315921
Brazil,Macapa,16,Good,1,Good,12,Good,0,Good,16,Good,0.0401529,-51.0569588
Pakistan,Madeji,167,Unhealthy,1,Good,49,Good,1,Good,167,Unhealthy,27.7545417,68.4521571
Lesotho,Mafeteng,117,Unhealthy for Sensitive Groups,4,Good,14,Good,7,Good,117,Unhealthy for Sensitive Groups,-29.7893049,27.4423193
United States of America,Magnolia,56,Moderate,1,Good,25,Good,2,Good,56,Moderate,30.2095594,-95.7507897
United Republic of Tanzania,Magomeni,50,Good,0,Good,23,Good,0,Good,50,Good,-6.803578,39.26045996137468
India,Mahbubabad,119,Unhealthy for Sensitive Groups,1,Good,35,Good,0,Good,119,Unhealthy for Sensitive Groups,17.595749,79.9999224
India,Mahoba,180,Unhealthy,1,Good,45,Good,0,Good,180,Unhealthy,25.36159385,79.70601096636403
India,Maihar,171,Unhealthy,1,Good,36,Good,0,Good,171,Unhealthy,24.260444,80.7592749
India,Mainpuri,434,Hazardous,1,Good,53,Moderate,1,Good,362,Hazardous,27.20930715,79.06253691568566
United States of America,Maitland,53,Moderate,1,Good,18,Good,14,Good,53,Moderate,28.6275253,-81.3656419
Ukraine,Makiyivka,50,Good,1,Good,24,Good,11,Good,50,Good,48.0448144,37.9635093
France,Malakoff,40,Good,1,Good,26,Good,3,Good,40,Good,48.8211559,2.3019814
Philippines,Malandag,55,Moderate,1,Good,19,Good,0,Good,55,Moderate,6.308396,125.2522511
Benin,Malanville,34,Good,1,Good,18,Good,1,Good,34,Good,11.8618128,3.3862982
Iran (Islamic Republic of),Malard,172,Unhealthy,3,Good,172,Unhealthy,5,Good,145,Unhealthy for Sensitive Groups,,
Italy,Malnate,69,Moderate,1,Good,22,Good,6,Good,69,Moderate,45.8000916,8.8781675
Mongolia,Mandalgovi,38,Good,0,Good,38,Good,0,Good,34,Good,45.7630435,106.2704145
India,Mangawan,184,Unhealthy,1,Good,39,Good,1,Good,184,Unhealthy,23.9584585,79.95407731351501
Democratic Republic of the Congo,Manono,74,Moderate,2,Good,23,Good,1,Good,74,Moderate,-7.2981166,27.396517
Venezuela (Bolivarian Republic of),Maracaibo,118,Unhealthy for Sensitive Groups,1,Good,17,Good,4,Good,118,Unhealthy for Sensitive Groups,,
Italy,Marano Di Napoli,52,Moderate,1,Good,52,Moderate,1,Good,36,Good,40.89761,14.190528
India,Gunnaur,500,Hazardous,1,Good,73,Moderate,1,Good,500,Hazardous,28.2598732,78.49927648914479
Germany,Hagen,30,Good,0,Good,30,Good,1,Good,25,Good,51.3582945,7.473296
China,Haian,207,Very Unhealthy,4,Good,207,Very Unhealthy,3,Good,150,Unhealthy,23.101837,113.4628954
France,Halluin,35,Good,0,Good,28,Good,2,Good,35,Good,50.7826693,3.1249234
Germany,Hamburg,34,Good,0,Good,28,Good,2,Good,34,Good,53.550341,10.000654
United States of America,Hanahan,73,Moderate,2,Good,35,Good,8,Good,73,Moderate,32.9138914,-80.0088359
Japan,Hanamaki,38,Good,1,Good,38,Good,0,Good,20,Good,39.3884038,141.1169618
India,Hangal,70,Moderate,0,Good,22,Good,0,Good,70,Moderate,14.7821772,75.13568579309008
Bulgaria,Harmanli,40,Good,1,Good,40,Good,1,Good,24,Good,41.9302645,25.9015211
Pakistan,Harunabad,500,Hazardous,1,Good,43,Good,0,Good,443,Hazardous,29.6104977,73.1388889
Germany,Hattingen,28,Good,0,Good,27,Good,2,Good,28,Good,51.4007175,7.1862486
United States of America,Hauppauge,52,Moderate,1,Good,27,Good,12,Good,52,Moderate,40.8237354,-73.20622885433086
United States of America,Hayward,70,Moderate,2,Good,20,Good,20,Good,70,Moderate,37.6688205,-122.080796
Finland,Heinola,33,Good,0,Good,33,Good,0,Good,5,Good,61.2027188,26.031371
Japan,Hekinan,59,Moderate,1,Good,59,Moderate,1,Good,23,Good,34.86505,136.984523
Germany,Hemsbach,30,Good,0,Good,30,Good,1,Good,24,Good,49.5919545,8.6460261
China,Hengyang,169,Unhealthy,4,Good,169,Unhealthy,3,Good,150,Unhealthy,26.8971308,112.5666191
Japan,Hirata,45,Good,1,Good,45,Good,0,Good,16,Good,37.2219658,140.5756791
Japan,Hobara,44,Good,1,Good,44,Good,0,Good,22,Good,37.8145581,140.5564964
United States of America,Hoboken,61,Moderate,1,Good,27,Good,11,Good,61,Moderate,40.7433066,-74.0323752
Somalia,Hobyo,58,Moderate,0,Good,21,Good,0,Good,58,Moderate,5.859166,48.2540902513346
Japan,Hofu,44,Good,1,Good,44,Good,0,Good,32,Good,34.0517226,131.5629141
Solomon Islands,Honiara,18,Good,0,Good,18,Good,0,Good,6,Good,-9.4310769,159.9552552
India,Honnali,65,Moderate,0,Good,22,Good,0,Good,65,Moderate,14.2389785,75.6457434
Paraguay,Horqueta,20,Good,0,Good,20,Good,0,Good,20,Good,-23.344573,-57.0513696
Armenia,Hrazdan,31,Good,0,Good,31,Good,0,Good,30,Good,40.5196871,44.7500706
China,Hsinchu,138,Unhealthy for Sensitive Groups,3,Good,138,Unhealthy for Sensitive Groups,2,Good,112,Unhealthy for Sensitive Groups,,
Peru,Huaura,39,Good,1,Good,19,Good,1,Good,39,Good,-11.0512402,-77.3218207
Zimbabwe,Hwange,44,Good,0,Good,17,Good,0,Good,44,Good,-18.840662350000002,26.731015365458344
Japan,Ichihara,74,Moderate,1,Good,74,Moderate,1,Good,35,Good,35.497775,140.1156996
India,Idukki,51,Moderate,0,Good,23,Good,0,Good,51,Moderate,9.815478500000001,76.99915994809137
Nigeria,Ikom,125,Unhealthy for Sensitive Groups,5,Good,16,Good,2,Good,125,Unhealthy for Sensitive Groups,5.962765,8.7239694
India,Khed,95,Moderate,0,Good,22,Good,0,Good,95,Moderate,18.8515893,73.83618598043944
India,Khetri,500,Hazardous,1,Good,40,Good,0,Good,376,Hazardous,28.0003366,75.784133
Russian Federation,Khimki,40,Good,1,Good,30,Good,8,Good,40,Good,55.8917293,37.4396994
India,Khopoli,108,Unhealthy for Sensitive Groups,0,Good,23,Good,0,Good,108,Unhealthy for Sensitive Groups,18.787747,73.3438185
Namibia,Khorixas,72,Moderate,0,Good,19,Good,0,Good,72,Moderate,-20.37384,14.960421
Ukraine,Khotyn,75,Moderate,1,Good,37,Good,1,Good,75,Moderate,48.5068418,26.4859086
United Republic of Tanzania,Kibara,20,Good,0,Good,14,Good,0,Good,20,Good,-2.15,33.45
Turkey,Kilis,64,Moderate,1,Good,41,Good,0,Good,64,Moderate,36.7797231,37.1416892
Ukraine,Kiliya,37,Good,1,Good,37,Good,0,Good,30,Good,45.4409767,29.2652788
United States of America,Killeen,40,Good,0,Good,21,Good,1,Good,40,Good,31.1171441,-97.727796
Russian Federation,Kinel Cherkassy,35,Good,1,Good,35,Good,0,Good,15,Good,53.470572450000006,51.56422760076637
,Kingston Upon Hull,33,Good,1,Good,17,Good,8,Good,33,Good,,
Austria,Klosterneuburg,59,Moderate,1,Good,30,Good,3,Good,59,Moderate,48.30499,16.323756
Croatia,Knin,48,Good,1,Good,48,Good,0,Good,35,Good,44.04085,16.199433
Papua New Guinea,Kokopo,104,Unhealthy for Sensitive Groups,0,Good,22,Good,0,Good,104,Unhealthy for Sensitive Groups,-4.3432175,152.2686741
Russian Federation,Kola,30,Good,1,Good,30,Good,0,Good,10,Good,67.68601595,37.092177864563226
Czechia,Kolin,50,Good,1,Good,23,Good,4,Good,50,Good,50.0288894,15.2011571
Poland,Kolo,32,Good,1,Good,32,Good,1,Good,29,Good,52.2019866,18.6359912
Russian Federation,Komsomolsk Na Amure,42,Good,1,Good,32,Good,0,Good,42,Good,50.5497277,137.0099189
Poland,Konskie,46,Good,1,Good,21,Good,4,Good,46,Good,51.1910223,20.4071836
Pakistan,Kot Radha Kishan,230,Very Unhealthy,5,Good,130,Unhealthy for Sensitive Groups,9,Good,230,Very Unhealthy,31.1704788,74.1012446
Russian Federation,Kotelnikovo,39,Good,1,Good,39,Good,0,Good,20,Good,47.6332274,43.14109
India,Kottaiyur,72,Moderate,1,Good,28,Good,2,Good,72,Moderate,12.1741753,78.1876973
Chad,Koumra,59,Moderate,2,Good,6,Good,0,Good,59,Moderate,8.9189081,17.5478111
India,Koyilandi,69,Moderate,0,Good,26,Good,0,Good,69,Moderate,11.515381699999999,75.77998470254406
Ukraine,Kozyatyn,78,Moderate,1,Good,38,Good,0,Good,78,Moderate,49.7054439,28.8304202
Russian Federation,Krasnovishersk,29,Good,1,Good,28,Good,0,Good,29,Good,60.40546155,57.08203197046519
Russian Federation,Krasnyy Yar,34,Good,1,Good,34,Good,1,Good,24,Good,55.240089,72.923889
Germany,Kronach,36,Good,1,Good,26,Good,2,Good,36,Good,50.2397846,11.3277669
Germany,Kronberg,30,Good,0,Good,30,Good,1,Good,27,Good,50.1907415,8.518277904791713
Ukraine,Kryvyy Rih,52,Moderate,1,Good,36,Good,1,Good,52,Moderate,,
India,Kudligi,74,Moderate,0,Good,24,Good,0,Good,74,Moderate,14.9050763,76.3844473
Russian Federation,Kulebaki,48,Good,1,Good,33,Good,1,Good,48,Good,55.429287,42.511879
India,Kushalnagar,54,Moderate,0,Good,21,Good,0,Good,54,Moderate,12.4585525,75.961437
Japan,Kushiro,33,Good,1,Good,33,Good,0,Good,9,Good,42.9849503,144.3820491
Myanmar,Kyaiklat,61,Moderate,0,Good,21,Good,0,Good,61,Moderate,16.4433836,95.7256825
Mexico,La Barca,37,Good,1,Good,8,Good,3,Good,37,Good,20.35720795,-102.50327003201096
France,La Crau,60,Moderate,1,Good,30,Good,6,Good,60,Moderate,43.1497034,6.0737053
Honduras,La Entrada,55,Moderate,2,Good,5,Good,4,Good,55,Moderate,15.0638015,-88.746425
United States of America,La Presa,58,Moderate,2,Good,14,Good,19,Good,58,Moderate,32.7055576,-117.00078272790344
Brazil,Ladario,17,Good,1,Good,17,Good,0,Good,12,Good,-19.0036585,-57.6028285
Brazil,Lagoa Da Canoa,34,Good,0,Good,15,Good,2,Good,34,Good,-9.8294012,-36.7395617
Germany,Ilsede,41,Good,0,Good,28,Good,2,Good,41,Good,52.2602378,10.2155251
Brazil,Imbituba,31,Good,1,Good,15,Good,1,Good,31,Good,-28.241827,-48.6643444
Brazil,Imbituva,24,Good,1,Good,8,Good,0,Good,24,Good,-25.2293338,-50.6051002
Japan,Inagi,78,Moderate,1,Good,78,Moderate,3,Good,51,Moderate,35.638229,139.507776
Spain,Inca,43,Good,1,Good,43,Good,0,Good,30,Good,39.7211448,2.9111493
India,Indergarh,390,Hazardous,1,Good,54,Moderate,1,Good,335,Hazardous,25.9106132,78.5628784
India,Indore,150,Unhealthy,1,Good,30,Good,0,Good,150,Unhealthy,22.7203616,75.8681996
Nigeria,Inisa,159,Unhealthy,6,Good,16,Good,5,Good,159,Unhealthy,7.985087,4.645545
United Kingdom of Great Britain and Northern Ireland,Inverurie,31,Good,1,Good,31,Good,2,Good,25,Good,57.2839493,-2.3742854
Japan,Ishigaki,116,Unhealthy for Sensitive Groups,2,Good,116,Unhealthy for Sensitive Groups,0,Good,64,Moderate,24.3439358,124.1861835
Côte d'Ivoire,Issia,84,Moderate,2,Good,10,Good,1,Good,84,Moderate,6.4877871,-6.5887859
Brazil,Itabera,16,Good,0,Good,16,Good,0,Good,16,Good,-23.8621345,-49.1398926
Brazil,Itaiba,28,Good,0,Good,14,Good,1,Good,28,Good,-8.94675,-37.421188
Ukraine,Izyaslav,59,Moderate,1,Good,31,Good,0,Good,59,Moderate,,
Ukraine,Izyum,51,Moderate,1,Good,34,Good,1,Good,51,Moderate,49.2160489,37.3015645
Spain,Jaen,36,Good,1,Good,17,Good,3,Good,36,Good,37.9557275,-3.492055612037218
India,Jagtial,139,Unhealthy for Sensitive Groups,1,Good,31,Good,0,Good,139,Unhealthy for Sensitive Groups,18.82135895,78.91506632525903
India,Jahangirpur,500,Hazardous,1,Good,49,Good,1,Good,493,Hazardous,26.261649849999998,78.27572878788843
India,Jamadoba,174,Unhealthy,1,Good,59,Moderate,1,Good,174,Unhealthy,23.7068396,86.4027715
India,Jandiala,156,Unhealthy,5,Good,124,Unhealthy for Sensitive Groups,10,Good,156,Unhealthy,31.1596218,75.617373
China,Jijiang,162,Unhealthy,10,Good,79,Moderate,25,Good,162,Unhealthy,29.2807701,106.263488
Mexico,Jilotepec,95,Moderate,2,Good,9,Good,9,Good,95,Moderate,20.0169568,-99.6281796339068
India,Jintur,130,Unhealthy for Sensitive Groups,1,Good,31,Good,0,Good,130,Unhealthy for Sensitive Groups,19.610654150000002,76.74356166512683
China,Jinxi,93,Moderate,2,Good,51,Moderate,2,Good,93,Moderate,40.7515443,120.8404789
Poland,Jozefow,43,Good,1,Good,30,Good,3,Good,43,Good,50.4808298,23.0540591
Germany,Juchen,34,Good,1,Good,23,Good,3,Good,34,Good,51.1017138,6.5036893
United Republic of Tanzania,Kabanga,171,Unhealthy,6,Good,10,Good,3,Good,171,Unhealthy,-9.6281282,33.8323298
China,Kaitong,95,Moderate,2,Good,79,Moderate,0,Good,95,Moderate,44.8072492,123.0847263
Finland,Kajaani,32,Good,1,Good,32,Good,0,Good,24,Good,64.2240872,27.7334227
India,Kakrala,500,Hazardous,2,Good,95,Moderate,2,Good,478,Hazardous,28.5510413,77.4103444
India,Kalavai,59,Moderate,1,Good,32,Good,0,Good,59,Moderate,12.769072,79.4195652
Russian Federation,Kalyazin,24,Good,1,Good,24,Good,0,Good,19,Good,57.2400206,37.8404883
Ukraine,Kalynivka,78,Moderate,1,Good,36,Good,1,Good,78,Moderate,49.4583688,28.5262638
Cambodia,Kampot,59,Moderate,1,Good,27,Good,0,Good,59,Moderate,10.6314754,104.132637
Pakistan,Kamra,135,Unhealthy for Sensitive Groups,2,Good,135,Unhealthy for Sensitive Groups,1,Good,86,Moderate,33.8560901,72.3941358
India,Kandhla,500,Hazardous,3,Good,53,Moderate,8,Good,500,Hazardous,29.3215949,77.2697457
Finland,Kangasala,30,Good,1,Good,30,Good,2,Good,14,Good,61.4715042,24.326179483624138
China,Kangshan,201,Very Unhealthy,3,Good,201,Very Unhealthy,4,Good,142,Unhealthy for Sensitive Groups,28.8806357,116.4288788
India,Karambakkudi,84,Moderate,1,Good,40,Good,1,Good,84,Moderate,10.459232499999999,79.13991656243076
India,Kargil,23,Good,1,Good,21,Good,0,Good,23,Good,33.802819,76.4730095688732
India,Kartarpur,168,Unhealthy,3,Good,168,Unhealthy,2,Good,146,Unhealthy for Sensitive Groups,31.4397157,75.4989077
India,Katol,144,Unhealthy for Sensitive Groups,1,Good,36,Good,0,Good,144,Unhealthy for Sensitive Groups,21.2171806,78.63642178329636
Russian Federation,Kavkazskaya,38,Good,1,Good,37,Good,1,Good,38,Good,43.6098507653274,39.7228714304593
Japan,Kawaguchi,75,Moderate,1,Good,75,Moderate,1,Good,34,Good,35.8078228,139.7241054
United States of America,Kearns,54,Moderate,1,Good,6,Good,14,Good,54,Moderate,40.6528603,-112.004618
Hungary,Kecskemet,65,Moderate,1,Good,27,Good,2,Good,65,Moderate,46.9073883,19.6917206
Belgium,Keerbergen,39,Good,1,Good,23,Good,5,Good,39,Good,51.0037524,4.6290719
Turkey,Kemalpasa,37,Good,1,Good,31,Good,5,Good,37,Good,38.4278291,27.4152158
United States of America,Kerrville,36,Good,0,Good,20,Good,1,Good,36,Good,30.048469,-99.1399464
United States of America,Kettering,53,Moderate,1,Good,31,Good,6,Good,53,Moderate,39.6895036,-84.1688274
India,Khammam,112,Unhealthy for Sensitive Groups,1,Good,29,Good,2,Good,112,Unhealthy for Sensitive Groups,17.2465351,80.1500326
India,Khandwa,130,Unhealthy for Sensitive Groups,0,Good,31,Good,0,Good,130,Unhealthy for Sensitive Groups,21.8203752,76.3555424
Italy,Marsciano,40,Good,1,Good,40,Good,2,Good,23,Good,42.9105115,12.3377232
France,Marseille,59,Moderate,1,Good,37,Good,6,Good,59,Moderate,43.2961743,5.3699525
United States of America,Mashpee,29,Good,1,Good,29,Good,2,Good,17,Good,41.6484421,-70.4811383
Uganda,Masindi,62,Moderate,2,Good,17,Good,0,Good,62,Moderate,1.6917534,31.773752436319583
Malaysia,Masjid Tanah,79,Moderate,2,Good,36,Good,0,Good,79,Moderate,2.3522253,102.1089793
Chad,Massakory,65,Moderate,2,Good,23,Good,1,Good,65,Moderate,12.996486,15.7349101
United Republic of Tanzania,Matai,19,Good,0,Good,19,Good,0,Good,19,Good,-8.29633,31.5214305
Tunisia,Matir,57,Moderate,1,Good,57,Moderate,1,Good,53,Moderate,37.0385985,9.6676974
Germany,Maxhutte Haidhof,44,Good,1,Good,35,Good,2,Good,44,Good,49.1987299,12.0959905
Philippines,Medellin,78,Moderate,1,Good,31,Good,0,Good,78,Moderate,11.1283811,123.9615625
Cuba,Media Luna,56,Moderate,1,Good,25,Good,1,Good,56,Moderate,20.1473128,-77.4357664
Senegal,Mekhe,171,Unhealthy,2,Good,20,Good,3,Good,171,Unhealthy,14.7772725,-16.5277163
Colombia,Melgar,121,Unhealthy for Sensitive Groups,4,Good,7,Good,8,Good,121,Unhealthy for Sensitive Groups,4.2039758,-74.6429479
Argentina,Mercedes,14,Good,1,Good,14,Good,0,Good,3,Good,-34.6506717,-59.4317202
United States of America,Merriam,95,Moderate,1,Good,23,Good,10,Good,95,Moderate,39.0168058,-94.689947
United States of America,Merrill,52,Moderate,1,Good,33,Good,3,Good,52,Moderate,42.7196653,-96.2481127
Hungary,Mezokovesd,67,Moderate,1,Good,36,Good,2,Good,67,Moderate,47.8097525,20.5660889
Netherlands,Middelharnis,34,Good,0,Good,34,Good,2,Good,32,Good,51.7576172,4.1656476
Turkey,Midyat,72,Moderate,1,Good,42,Good,1,Good,72,Moderate,37.4152662,41.3733325
Brazil,Miguel Alves,47,Good,1,Good,7,Good,1,Good,47,Good,-4.1730384,-42.8955677
Uruguay,Minas,22,Good,0,Good,19,Good,0,Good,22,Good,-34.3773987,-55.2382144
Brazil,Miranorte,41,Good,0,Good,11,Good,0,Good,41,Good,-9.529068,-48.592222
India,Misrikh,178,Unhealthy,4,Good,178,Unhealthy,2,Good,170,Unhealthy,27.53225485,80.4401156123335
India,Moga,159,Unhealthy,2,Good,134,Unhealthy for Sensitive Groups,1,Good,159,Unhealthy,30.7877554,75.15935898836224
Italy,Mogliano Veneto,89,Moderate,2,Good,33,Good,5,Good,89,Moderate,45.5612886,12.2376973
Indonesia,Mojoagung,155,Unhealthy,3,Good,91,Moderate,2,Good,155,Unhealthy,-7.5699054,112.344923
Japan,Mombetsu,36,Good,1,Good,36,Good,0,Good,28,Good,44.3565151,143.3545224
Philippines,Montalban,70,Moderate,1,Good,23,Good,2,Good,70,Moderate,14.7324642,121.1453418
France,Montauban,32,Good,1,Good,32,Good,2,Good,32,Good,44.0175835,1.3549991
France,Montigny Le Bretonneux,62,Moderate,1,Good,17,Good,7,Good,62,Moderate,48.7698937,2.0381228
Hungary,Mor,61,Moderate,1,Good,39,Good,1,Good,61,Moderate,47.3720267,18.2090388
Bangladesh,Morrelganj,142,Unhealthy for Sensitive Groups,3,Good,48,Good,2,Good,142,Unhealthy for Sensitive Groups,22.480034,89.80357064574076
Belgium,Mortsel,40,Good,1,Good,29,Good,3,Good,40,Good,51.1704119,4.4566996
United States of America,Moscow,30,Good,1,Good,19,Good,4,Good,30,Good,46.7323875,-117.000165
India,Mudhol,73,Moderate,0,Good,24,Good,0,Good,73,Moderate,16.3338591,75.2870794
Italy,Muggio,104,Unhealthy for Sensitive Groups,1,Good,34,Good,6,Good,104,Unhealthy for Sensitive Groups,45.5931952,9.2271378
Germany,Mulheim Karlich,51,Moderate,1,Good,23,Good,4,Good,51,Moderate,50.3868869,7.4975336
Mexico,Muna,59,Moderate,1,Good,21,Good,1,Good,59,Moderate,20.4680364,-89.73191331976784
Poland,Myslowice,106,Unhealthy for Sensitive Groups,2,Good,28,Good,8,Good,106,Unhealthy for Sensitive Groups,50.2096211,19.132165997410812
India,Nandurbar,140,Unhealthy for Sensitive Groups,0,Good,29,Good,0,Good,140,Unhealthy for Sensitive Groups,21.51416215,74.54055132515717
India,Nangloi Jat,334,Hazardous,3,Good,113,Unhealthy for Sensitive Groups,3,Good,326,Hazardous,,
Mexico,Naranjos,92,Moderate,2,Good,34,Good,1,Good,92,Moderate,21.349722,-97.686667
India,Naravarikuppam,118,Unhealthy for Sensitive Groups,2,Good,27,Good,2,Good,118,Unhealthy for Sensitive Groups,,
Italy,Nardo,54,Moderate,1,Good,54,Moderate,2,Good,18,Good,40.1762608,18.0306371
Pakistan,Narowal,164,Unhealthy,3,Good,164,Unhealthy,1,Good,138,Unhealthy for Sensitive Groups,32.1009752,74.872238
India,Nawa,195,Unhealthy,1,Good,36,Good,0,Good,195,Unhealthy,27.0214531,75.0027941
India,Nazira,62,Moderate,2,Good,34,Good,1,Good,62,Moderate,26.8622087,94.71831673503598
Romania,Nehoiu,52,Moderate,1,Good,40,Good,0,Good,52,Moderate,45.41828,26.3034818
Germany,Neustadt,33,Good,0,Good,33,Good,0,Good,32,Good,49.3539802,8.1350021
United States of America,New Lenox,54,Moderate,2,Good,30,Good,11,Good,54,Moderate,41.5119761,-87.9656098
,New Waterford,20,Good,1,Good,18,Good,9,Good,20,Good,,
United Kingdom of Great Britain and Northern Ireland,Newburn,31,Good,0,Good,31,Good,2,Good,21,Good,54.983543,-1.7405072
United Kingdom of Great Britain and Northern Ireland,Newbury,50,Good,1,Good,22,Good,7,Good,50,Good,51.4020243,-1.3242212
Republic of Moldova,Nisporeni,53,Moderate,1,Good,36,Good,1,Good,53,Moderate,47.07758,28.177842
Japan,Nisshin,44,Good,1,Good,44,Good,1,Good,16,Good,35.139303,137.053708
Russian Federation,Nizhniye Sergi,37,Good,1,Good,35,Good,0,Good,37,Good,,
Germany,Nohfelden,54,Moderate,1,Good,30,Good,3,Good,54,Moderate,49.5870808,7.1430408
India,Khargapur,197,Unhealthy,1,Good,42,Good,0,Good,197,Unhealthy,24.846137,79.1845286
India,Kharhial,161,Unhealthy,1,Good,32,Good,1,Good,161,Unhealthy,20.2930499,82.7610406
India,Khategaon,157,Unhealthy,1,Good,36,Good,0,Good,157,Unhealthy,22.59751695,76.91664818361514
India,Kheda,158,Unhealthy,1,Good,38,Good,0,Good,158,Unhealthy,22.8532503,72.99535862253666
Thailand,Khiri Mat,81,Moderate,0,Good,23,Good,0,Good,81,Moderate,16.8324882,99.8054296
Sudan,Kinanah,54,Moderate,1,Good,21,Good,0,Good,54,Moderate,12.3771792,29.0676759
United States of America,Kingsgate,58,Moderate,2,Good,17,Good,15,Good,58,Moderate,47.7273256,-122.1797584
,Kingstown,163,Unhealthy,0,Good,25,Good,0,Good,163,Unhealthy,-30.5076194,151.1167744
India,Kinwat,151,Unhealthy,1,Good,33,Good,0,Good,151,Unhealthy,19.57746895,78.24400876748888
India,Kishangarh,409,Hazardous,1,Good,44,Good,0,Good,356,Hazardous,26.5885585,74.861097
Hungary,Kiskunfelegyhaza,71,Moderate,1,Good,40,Good,1,Good,71,Moderate,46.7114381,19.8501648
United States of America,Klamath Falls,40,Good,1,Good,7,Good,6,Good,40,Good,42.224867,-121.78167
India,Kodarma,186,Unhealthy,2,Good,108,Unhealthy for Sensitive Groups,1,Good,186,Unhealthy,24.54238015,85.69300996279287
Pakistan,Kohat,101,Unhealthy for Sensitive Groups,1,Good,62,Moderate,0,Good,101,Unhealthy for Sensitive Groups,33.5967144,71.4399944
South Africa,Koppies,191,Unhealthy,7,Good,9,Good,18,Good,191,Unhealthy,-27.2428003,27.5741018
China,Korla,160,Unhealthy,1,Good,45,Good,0,Good,160,Unhealthy,41.673238,85.716234
Russian Federation,Kormilovka,38,Good,1,Good,38,Good,0,Good,15,Good,54.9992917,74.0944462
Ukraine,Korostyshiv,89,Moderate,1,Good,39,Good,0,Good,89,Moderate,50.3201518,29.0584885
Guinea,Kouroussa,56,Moderate,1,Good,13,Good,0,Good,56,Moderate,10.6513609,-9.881002
Bulgaria,Kozloduj,51,Moderate,1,Good,35,Good,2,Good,51,Moderate,43.742674550000004,23.776947900069338
United States of America,Littleton,74,Moderate,1,Good,8,Good,13,Good,74,Moderate,39.613321,-105.016649
Italy,Lizzano,48,Good,1,Good,48,Good,3,Good,36,Good,40.391023,17.447607
Bolivia (Plurinational State of),Llallagua,12,Good,0,Good,12,Good,0,Good,11,Good,,
United States of America,Lochearn,42,Good,1,Good,28,Good,10,Good,42,Good,39.34795165,-76.72839331295516
India,Lohardaga,185,Unhealthy,1,Good,55,Moderate,0,Good,185,Unhealthy,23.4770044,84.69866841888845
Finland,Lohja,27,Good,1,Good,27,Good,4,Good,19,Good,60.2526036,24.0684575
Myanmar,Loikaw,15,Good,0,Good,15,Good,0,Good,10,Good,19.674167,97.2094441
Italy,Lonate Pozzolo,82,Moderate,1,Good,42,Good,2,Good,82,Moderate,45.5967722,8.7547313
Russian Federation,Lopatinskiy,33,Good,1,Good,33,Good,2,Good,24,Good,,
Chile,Lota,67,Moderate,2,Good,10,Good,8,Good,67,Moderate,-37.0944533,-73.1564024
Angola,Lubango,40,Good,1,Good,14,Good,0,Good,40,Good,-14.9195617,13.4897509
Germany,Lubeck,33,Good,0,Good,33,Good,1,Good,32,Good,53.866444,10.684738
Democratic Republic of the Congo,Luebo,90,Moderate,4,Good,20,Good,0,Good,90,Moderate,-5.3535845,21.4197459
India,Lumding,43,Good,2,Good,21,Good,0,Good,43,Good,25.7535433,93.1731676
Belgium,Maasmechelen,44,Good,1,Good,24,Good,4,Good,44,Good,50.9634179,5.6960212
Colombia,Magangue,35,Good,1,Good,15,Good,1,Good,35,Good,9.2412097,-74.7567413
India,Mahendragarh,500,Hazardous,1,Good,42,Good,0,Good,435,Hazardous,28.132697049999997,76.16974476260464
India,Mahesana,170,Unhealthy,0,Good,33,Good,0,Good,170,Unhealthy,23.6015557,72.3867981
Turkey,Malatya,55,Moderate,1,Good,29,Good,0,Good,55,Moderate,38.3487153,38.3190674
Turkey,Malazgirt,47,Good,1,Good,36,Good,0,Good,47,Good,39.1461406,42.5409459
Philippines,Manay,25,Good,0,Good,15,Good,0,Good,25,Good,7.2109327,126.5399142
India,Mandvi,150,Unhealthy,0,Good,27,Good,0,Good,150,Unhealthy,22.8314482,69.35081
Philippines,Manibaug,65,Moderate,1,Good,22,Good,1,Good,65,Moderate,15.110432450000001,120.56603742745068
India,Manohar Thana,168,Unhealthy,1,Good,42,Good,0,Good,168,Unhealthy,24.2343021,76.8057358
Kingdom of Eswatini,Manzini,75,Moderate,3,Good,15,Good,1,Good,75,Moderate,-26.4976444,31.3750815
Ukraine,Krasnodon,37,Good,1,Good,37,Good,0,Good,13,Good,48.2951425,39.7296737
Afghanistan,Kuhestan,151,Unhealthy,1,Good,41,Good,0,Good,151,Unhealthy,34.6545962,61.2000821
India,Kunigal,50,Good,0,Good,21,Good,0,Good,50,Good,13.0260158,77.0222704
Switzerland,Kusnacht,112,Unhealthy for Sensitive Groups,1,Good,27,Good,3,Good,112,Unhealthy for Sensitive Groups,47.3176276,8.5830859
Peru,La Arena,49,Good,0,Good,23,Good,0,Good,49,Good,-5.3466201,-80.710859
Spain,La Carolina,34,Good,1,Good,17,Good,3,Good,34,Good,38.2742478,-3.6152701
Spain,La Garriga,49,Good,1,Good,30,Good,5,Good,49,Good,41.6849111,2.2865796
Mexico,La Joya,109,Unhealthy for Sensitive Groups,3,Good,5,Good,9,Good,109,Unhealthy for Sensitive Groups,32.4448306,-117.0033708
Spain,La Llagosta,53,Moderate,1,Good,26,Good,7,Good,53,Moderate,41.5139877,2.1912073
United States of America,Lady Lake,72,Moderate,1,Good,7,Good,14,Good,72,Moderate,28.9174855,-81.9228604
Malaysia,Lahad Datu,48,Good,1,Good,15,Good,0,Good,48,Good,5.115509299999999,118.43063612953864
India,Lakhimpur,190,Unhealthy,4,Good,190,Unhealthy,1,Good,164,Unhealthy,27.17633555,94.19929317390199
India,Lalgudi,54,Moderate,0,Good,27,Good,0,Good,54,Moderate,10.8754197,78.8153244
Indonesia,Lamongan,167,Unhealthy,3,Good,123,Unhealthy for Sensitive Groups,1,Good,167,Unhealthy,-7.1229318500000005,112.32819354965417
Belgium,Lanaken,43,Good,1,Good,25,Good,4,Good,43,Good,50.8892784,5.6513208
France,Lannion,41,Good,1,Good,26,Good,4,Good,41,Good,48.7322183,-3.4587994
Italy,Lanuvio,40,Good,1,Good,40,Good,2,Good,20,Good,41.6745277,12.6972435
Mexico,Las Margaritas,61,Moderate,1,Good,8,Good,4,Good,61,Moderate,16.3117811,-91.9817243
Italy,Lastra A Signa,35,Good,1,Good,35,Good,3,Good,17,Good,43.770985,11.107215
France,Le Blanc Mesnil,60,Moderate,1,Good,20,Good,6,Good,60,Moderate,48.9385489,2.4631476
France,Le Tampon,62,Moderate,1,Good,26,Good,1,Good,62,Moderate,-21.2774285,55.5164178
Portugal,Leca Do Bailio,28,Good,0,Good,28,Good,2,Good,20,Good,41.21232474999999,-8.628088872991402
Belgium,Lede,42,Good,1,Good,28,Good,4,Good,42,Good,50.9662645,3.9775505
Italy,Lentini,67,Moderate,1,Good,36,Good,3,Good,67,Moderate,37.284685,14.9987779
United States of America,Leominster,30,Good,1,Good,30,Good,3,Good,22,Good,42.5267443,-71.7614891
Mexico,Leon,50,Good,1,Good,14,Good,3,Good,50,Good,21.121965,-101.6829766
Bulgaria,Levski,52,Moderate,1,Good,36,Good,1,Good,52,Moderate,43.3597306,25.1422144
China,Liancheng,58,Moderate,1,Good,28,Good,2,Good,58,Moderate,25.5783705,116.7997728
United States of America,Lighthouse Point,58,Moderate,1,Good,14,Good,10,Good,58,Moderate,26.275636,-80.0872654
Malawi,Lilongwe,33,Good,0,Good,19,Good,0,Good,33,Good,-13.9875107,33.768144
Pakistan,Kanganpur,175,Unhealthy,2,Good,145,Unhealthy for Sensitive Groups,1,Good,175,Unhealthy,30.7583889,74.1219788
Nigeria,Kano,138,Unhealthy for Sensitive Groups,4,Good,25,Good,4,Good,138,Unhealthy for Sensitive Groups,11.9939978,8.5219738
India,Kapasan,162,Unhealthy,1,Good,38,Good,0,Good,162,Unhealthy,24.8614365,74.3110046
Russian Federation,Karabash,36,Good,1,Good,36,Good,0,Good,33,Good,55.4885688,60.2028784
India,Karamadai,44,Good,0,Good,23,Good,0,Good,44,Good,11.2393183,76.9600768
Indonesia,Karang Tengah,105,Unhealthy for Sensitive Groups,2,Good,59,Moderate,1,Good,105,Unhealthy for Sensitive Groups,-6.21022315,106.70964888311293
India,Karauli,213,Very Unhealthy,1,Good,43,Good,0,Good,213,Very Unhealthy,26.4530971,77.0160460838982
India,Kareli,169,Unhealthy,1,Good,36,Good,0,Good,169,Unhealthy,22.9322525,79.0666841
India,Karhal,265,Very Unhealthy,2,Good,91,Moderate,1,Good,265,Very Unhealthy,27.052159099999997,78.96116762387035
United States of America,Kaukauna,49,Good,1,Good,31,Good,6,Good,49,Good,44.2780432,-88.2720503
India,Kayankulam,68,Moderate,1,Good,24,Good,0,Good,68,Moderate,9.1723603,76.500061
Uzbekistan,Kegayli,69,Moderate,1,Good,39,Good,0,Good,69,Moderate,42.7752285,59.60939543372782
Indonesia,Kembaran,54,Moderate,1,Good,29,Good,1,Good,54,Moderate,-7.4021723,109.2859384
Finland,Kerava,23,Good,1,Good,23,Good,6,Good,18,Good,60.4034398,25.1041013
Poland,Jawor,63,Moderate,1,Good,24,Good,3,Good,63,Moderate,51.067702100000005,16.197613635866436
France,Joigny,31,Good,1,Good,31,Good,1,Good,21,Good,47.9812486,3.3995767
Sweden,Jonkoping,34,Good,0,Good,33,Good,0,Good,34,Good,57.7825634,14.165719
Germany,Jork,34,Good,0,Good,34,Good,1,Good,31,Good,53.5328436,9.6814319
Peru,Juanjui,46,Good,1,Good,2,Good,0,Good,46,Good,-7.27200325,-76.7508655425741
Brazil,Juazeiro Do Norte,32,Good,0,Good,11,Good,2,Good,32,Good,-7.2153453,-39.3153336
Tunisia,Jundubah,58,Moderate,1,Good,48,Good,1,Good,58,Moderate,,
China,Juye,176,Unhealthy,4,Good,176,Unhealthy,5,Good,129,Unhealthy for Sensitive Groups,35.3887802,116.056912
Zambia,Kafue,36,Good,0,Good,16,Good,0,Good,36,Good,-14.3734594,27.1952118
United States of America,Mountlake Terrace,49,Good,1,Good,25,Good,11,Good,49,Good,47.7909667,-122.3066395
Morocco,Mrirt,59,Moderate,2,Good,16,Good,4,Good,59,Moderate,33.161,-5.566
India,Muktsar,180,Unhealthy,2,Good,151,Unhealthy,1,Good,180,Unhealthy,30.4692,74.5182
Ireland,Mullingar,27,Good,0,Good,27,Good,0,Good,13,Good,53.5229058,-7.345688
Pakistan,Multan,194,Unhealthy,3,Good,176,Unhealthy,2,Good,194,Unhealthy,30.197838,71.4719683
Ghana,Mumford,74,Moderate,2,Good,17,Good,1,Good,74,Moderate,5.261359,-0.759831
Japan,Murayama,35,Good,1,Good,35,Good,1,Good,13,Good,38.4836471,140.3808616
Spain,Murcia,29,Good,1,Good,29,Good,2,Good,20,Good,37.9923795,-1.1305431
India,Musiri,54,Moderate,0,Good,25,Good,0,Good,54,Moderate,11.0488173,78.52822930745981
United States of America,Muskego,58,Moderate,2,Good,18,Good,21,Good,58,Moderate,42.905848,-88.1389779
India,Muvattupula,89,Moderate,1,Good,25,Good,1,Good,89,Moderate,,
Netherlands,Naarden,42,Good,0,Good,35,Good,1,Good,42,Good,52.2957628,5.1633636
Russian Federation,Nakhabino,36,Good,1,Good,25,Good,7,Good,36,Good,55.8394789,37.1770987
India,Naldurg,91,Moderate,0,Good,25,Good,0,Good,91,Moderate,17.8149863,76.278965
,Nanakuli,30,Good,0,Good,27,Good,0,Good,30,Good,,
China,Nantong,206,Very Unhealthy,7,Good,206,Very Unhealthy,9,Good,167,Unhealthy,31.9827896,120.8904588
Hungary,Jaszbereny,67,Moderate,1,Good,38,Good,2,Good,67,Moderate,47.5030505,19.9117887
France,Jeumont,51,Moderate,1,Good,22,Good,5,Good,51,Moderate,50.2971012,4.0996569
Pakistan,Johi,162,Unhealthy,1,Good,37,Good,0,Good,162,Unhealthy,26.6910715,67.6114174
India,Kachhwa,187,Unhealthy,2,Good,106,Unhealthy for Sensitive Groups,1,Good,187,Unhealthy,23.468124099999997,77.8991517233821
India,Kalanaur,157,Unhealthy,3,Good,157,Unhealthy,1,Good,126,Unhealthy for Sensitive Groups,28.796834349999997,76.4581617677851
Pakistan,Lakhi,163,Unhealthy,1,Good,71,Moderate,1,Good,163,Unhealthy,27.8503045,68.700553
India,Lala,87,Moderate,1,Good,36,Good,0,Good,87,Moderate,24.58312935,92.59505839785001
Thailand,Lang Suan,32,Good,0,Good,16,Good,0,Good,32,Good,9.9492883,99.0764176
,Lavagna,55,Moderate,1,Good,38,Good,2,Good,55,Moderate,,
France,Le Lamentin,85,Moderate,0,Good,25,Good,0,Good,85,Moderate,14.614557,-61.0018145
United States of America,League City,45,Good,1,Good,22,Good,5,Good,45,Good,29.5074538,-95.0949303
Ukraine,Lebedyn,55,Moderate,1,Good,40,Good,1,Good,55,Moderate,50.5809626,34.4753069
United States of America,Lennox,114,Unhealthy for Sensitive Groups,3,Good,8,Good,37,Good,114,Unhealthy for Sensitive Groups,33.9390306,-118.3574427
Slovakia,Levice,50,Good,1,Good,31,Good,1,Good,50,Good,48.2163194,18.6000869
New Zealand,Levin,13,Good,0,Good,13,Good,1,Good,12,Good,-40.6218161,175.2865854
Brazil,Lima Duarte,88,Moderate,3,Good,7,Good,8,Good,88,Moderate,-21.842777,-43.792777
Germany,Limburg,33,Good,1,Good,33,Good,2,Good,30,Good,50.406558,8.075668
Sweden,Lindome,38,Good,0,Good,38,Good,1,Good,19,Good,57.5791257,12.0876599
Italy,Lissone,33,Good,1,Good,33,Good,2,Good,23,Good,45.6107705,9.2408409
United States of America,Lockhart,47,Good,1,Good,21,Good,2,Good,47,Good,29.8832105,-97.6736292
Pakistan,Lodhran,500,Hazardous,1,Good,45,Good,0,Good,364,Hazardous,29.5390395,71.6344196
Germany,Lohmar,33,Good,1,Good,33,Good,2,Good,29,Good,50.8402243,7.2127276
Portugal,Lordelo,40,Good,1,Good,22,Good,4,Good,40,Good,41.3725051,-8.3787227
Mexico,Los Reyes Acozac,195,Unhealthy,3,Good,5,Good,15,Good,195,Unhealthy,19.7742362,-98.9830932
China,Loudi,99,Moderate,4,Good,99,Moderate,5,Good,97,Moderate,27.6995215,111.9890658
China,Luan,183,Unhealthy,4,Good,183,Unhealthy,2,Good,115,Unhealthy for Sensitive Groups,39.7629676,118.6588085
Angola,Luena,66,Moderate,1,Good,22,Good,0,Good,66,Moderate,-11.7790355,19.9122676
Philippines,Lun,15,Good,0,Good,15,Good,0,Good,15,Good,38.907488,-77.03813305272263
Belarus,Lyuban,52,Moderate,1,Good,28,Good,1,Good,52,Moderate,52.7959497,27.9981015
Russian Federation,Lyudinovo,70,Moderate,1,Good,23,Good,2,Good,70,Moderate,53.8646239,34.447908
Netherlands,Maassluis,38,Good,1,Good,27,Good,4,Good,38,Good,51.9219917,4.2541194
Guinea,Macenta,32,Good,1,Good,14,Good,0,Good,32,Good,8.294829199999999,-9.209446285065466
United States of America,Machesney Park,72,Moderate,3,Good,0,Good,10,Good,72,Moderate,42.3472406,-89.0389956
Pakistan,Mailsi,500,Hazardous,1,Good,45,Good,0,Good,386,Hazardous,29.7989371,72.1782366
Germany,Mainburg,29,Good,0,Good,28,Good,1,Good,29,Good,48.640589,11.7820705
Indonesia,Malang,67,Moderate,1,Good,36,Good,0,Good,67,Moderate,-7.9771308,112.6340265
Philippines,Malaya,57,Moderate,1,Good,25,Good,1,Good,57,Moderate,15.5763139,120.8775982
United Republic of Tanzania,Malinyi,31,Good,1,Good,11,Good,0,Good,31,Good,-9.188061900000001,36.15205494284014
India,Manamadurai,60,Moderate,1,Good,37,Good,0,Good,60,Moderate,9.729825850000001,78.41827693213487
Philippines,Manapla,54,Moderate,1,Good,22,Good,0,Good,54,Moderate,10.92318465,123.12223676623185
Italy,Manfredonia,49,Good,1,Good,49,Good,0,Good,36,Good,41.6254728,15.9095926
India,Manmad,148,Unhealthy for Sensitive Groups,1,Good,32,Good,0,Good,148,Unhealthy for Sensitive Groups,20.2519828,74.4392286
Spain,Maracena,32,Good,1,Good,32,Good,1,Good,15,Good,37.2076275,-3.633024
Philippines,Margosatubig,17,Good,0,Good,16,Good,0,Good,17,Good,7.5755699,123.1659362
Russian Federation,Kotelnich,33,Good,1,Good,33,Good,0,Good,10,Good,58.3053524,48.3372596
Russian Federation,Krasnodar,44,Good,1,Good,44,Good,4,Good,31,Good,45.0351532,38.9772396
Russian Federation,Krasnogorsk,61,Moderate,1,Good,24,Good,10,Good,61,Moderate,55.8217545,37.3400897
Russian Federation,Krasnokamsk,25,Good,1,Good,25,Good,0,Good,19,Good,58.0833042,55.76998972536403
Netherlands,Krimpen,39,Good,1,Good,27,Good,5,Good,39,Good,51.9166979,4.608369872564271
Norway,Kristiansand,52,Moderate,0,Good,34,Good,1,Good,52,Moderate,58.085627599999995,7.93185802875815
Thailand,Kumphawapi,57,Moderate,0,Good,24,Good,0,Good,57,Moderate,17.1220424,102.9481029
Pakistan,Kunjah,191,Unhealthy,2,Good,163,Unhealthy,1,Good,191,Unhealthy,32.529715,73.973987
Germany,Kunzelsau,28,Good,1,Good,28,Good,2,Good,25,Good,49.2803765,9.6901512
India,Kurinjippadi,85,Moderate,2,Good,40,Good,1,Good,85,Moderate,11.5667432,79.5944716
Russian Federation,Kurtamysh,31,Good,1,Good,31,Good,0,Good,31,Good,54.9095859,64.4283925
Indonesia,Kutoarjo,58,Moderate,1,Good,28,Good,0,Good,58,Moderate,-7.7260691,109.9071767
Belgium,Kuurne,38,Good,1,Good,23,Good,3,Good,38,Good,50.8522857,3.2864742
France,La Baule Escoublac,33,Good,0,Good,33,Good,0,Good,21,Good,47.2843726,-2.3951595
France,La Madeleine,38,Good,1,Good,23,Good,3,Good,38,Good,50.654401,3.0733338
Mexico,La Piedad,52,Moderate,1,Good,6,Good,5,Good,52,Moderate,20.298689850000002,-102.04781879716586
,Ladispoli,48,Good,1,Good,48,Good,2,Good,34,Good,,
Nigeria,Lafiagi,79,Moderate,2,Good,27,Good,0,Good,79,Moderate,8.8537499,5.4189547
Portugal,Marinha Grande,40,Good,0,Good,29,Good,1,Good,40,Good,39.7495952,-8.9298895
Russian Federation,Markha,36,Good,1,Good,36,Good,0,Good,24,Good,65.4149754,115.4944669
Morocco,Martil,39,Good,1,Good,39,Good,4,Good,38,Good,35.617441,-5.274154
Iran (Islamic Republic of),Masjed E Soleyman,151,Unhealthy,1,Good,61,Moderate,0,Good,151,Unhealthy,,
Azerbaijan,Mastaga,70,Moderate,1,Good,38,Good,0,Good,70,Moderate,40.5315618,50.0009549
Pakistan,Mastung,102,Unhealthy for Sensitive Groups,0,Good,43,Good,0,Good,102,Unhealthy for Sensitive Groups,29.7990934,66.8475932
Indonesia,Mataram,34,Good,1,Good,25,Good,0,Good,34,Good,-8.5837726,116.10685
Egypt,Matay,110,Unhealthy for Sensitive Groups,2,Good,71,Moderate,3,Good,110,Unhealthy for Sensitive Groups,28.4176905,30.7861579
China,Matou,111,Unhealthy for Sensitive Groups,2,Good,42,Good,8,Good,111,Unhealthy for Sensitive Groups,36.475905,114.420779
United States of America,Matteson,77,Moderate,2,Good,10,Good,27,Good,77,Moderate,41.509832,-87.739267
India,Mavur,66,Moderate,1,Good,25,Good,0,Good,66,Moderate,11.4308004,78.4396608
Brazil,Medeiros Neto,52,Moderate,1,Good,6,Good,1,Good,52,Moderate,-17.3728243,-40.2203882
Guatemala,Melchor De Mencos,55,Moderate,1,Good,12,Good,0,Good,55,Moderate,17.0624217,-89.1560266
Italy,Melegnano,44,Good,1,Good,33,Good,3,Good,44,Good,45.3587886,9.3239755
Indonesia,Mertoyudan,66,Moderate,1,Good,32,Good,1,Good,66,Moderate,-7.5108329,110.2241571
,Dong Hoi,55,Moderate,0,Good,26,Good,0,Good,55,Moderate,26.9198901,109.8152147
China,Dongying,110,Unhealthy for Sensitive Groups,2,Good,110,Unhealthy for Sensitive Groups,1,Good,59,Moderate,37.4334738,118.6689349
India,Doraha,467,Hazardous,1,Good,102,Unhealthy for Sensitive Groups,1,Good,400,Hazardous,30.7988727,76.0372906
Germany,Dreieich,37,Good,1,Good,37,Good,1,Good,30,Good,50.011974,8.7123912
Indonesia,Driyorejo,157,Unhealthy,2,Good,84,Moderate,2,Good,157,Unhealthy,-7.3654117,112.6017226
United Kingdom of Great Britain and Northern Ireland,Dronfield,39,Good,0,Good,31,Good,1,Good,39,Good,53.3019998,-1.4752184
India,Dumjor,179,Unhealthy,3,Good,102,Unhealthy for Sensitive Groups,4,Good,179,Unhealthy,,
Hungary,Dunaharaszti,51,Moderate,1,Good,27,Good,2,Good,51,Moderate,47.359976,19.0953357
Hungary,Dunaujvaros,52,Moderate,1,Good,27,Good,2,Good,52,Moderate,46.9669545,18.9393976
United Kingdom of Great Britain and Northern Ireland,East Grinstead,36,Good,0,Good,27,Good,3,Good,36,Good,51.1322179,-0.0117661
United Kingdom of Great Britain and Northern Ireland,Ebbw Vale,50,Good,0,Good,29,Good,1,Good,50,Good,51.7812925,-3.2084383
United States of America,Ecorse,51,Moderate,1,Good,28,Good,9,Good,51,Moderate,42.2444833,-83.145757
Ecuador,El Carmen,79,Moderate,3,Good,5,Good,9,Good,79,Moderate,-0.48095414999999997,-79.57415475430108
Venezuela (Bolivarian Republic of),El Hatillo,48,Good,1,Good,18,Good,5,Good,48,Good,,
Spain,El Prat De Llobregat,57,Moderate,1,Good,30,Good,6,Good,57,Moderate,41.3246333,2.0952568
Guatemala,El Quetzal,99,Moderate,3,Good,11,Good,11,Good,99,Moderate,14.792831549999999,-91.79414988579622
Spain,Elgoibar,32,Good,0,Good,32,Good,0,Good,21,Good,43.2143558,-2.4168588
United States of America,Elko,24,Good,1,Good,24,Good,2,Good,17,Good,41.1958128,-115.3272864
Germany,Elmshorn,32,Good,1,Good,32,Good,2,Good,26,Good,53.7532486,9.6524559
Brazil,Eloi Mendes,51,Moderate,1,Good,7,Good,4,Good,51,Moderate,-21.6094466,-45.5660211
India,Elur,72,Moderate,1,Good,26,Good,0,Good,72,Moderate,10.0669964,76.2989276
United States of America,Enumclaw,29,Good,1,Good,29,Good,2,Good,23,Good,47.2047793,-121.9916371
Iran (Islamic Republic of),Eqbaliyeh,172,Unhealthy,2,Good,172,Unhealthy,4,Good,150,Unhealthy,,
Mongolia,Erdenet,81,Moderate,1,Good,34,Good,0,Good,81,Moderate,49.0276045,104.0443867
Spain,Ermua,32,Good,0,Good,32,Good,1,Good,22,Good,43.1862849,-2.5027614
Turkey,Erzurum,74,Moderate,0,Good,40,Good,0,Good,74,Moderate,39.90632,41.2727715
Kazakhstan,Esik,130,Unhealthy for Sensitive Groups,1,Good,30,Good,0,Good,130,Unhealthy for Sensitive Groups,43.359486,77.465919
Brazil,Esperantina,55,Moderate,2,Good,1,Good,3,Good,55,Moderate,-3.8950963,-42.2370595
Belgium,Essen,38,Good,1,Good,28,Good,4,Good,38,Good,51.4679229,4.4698256
Spain,Estepa,31,Good,1,Good,31,Good,2,Good,25,Good,37.29204,-4.8781876
Mexico,Etzatlan,56,Moderate,2,Good,1,Good,5,Good,56,Moderate,20.761220899999998,-104.13063108161292
Italy,Fabriano,40,Good,1,Good,40,Good,1,Good,30,Good,43.3358407,12.9046187
United States of America,Fairview Heights,45,Good,1,Good,32,Good,8,Good,45,Good,38.5889386,-89.990382
Pakistan,Faisalabad,301,Hazardous,1,Good,82,Moderate,1,Good,301,Hazardous,31.4220558,73.0923253
United States of America,Falls Church,59,Moderate,2,Good,41,Good,5,Good,59,Moderate,38.882334,-77.1710914
United Kingdom of Great Britain and Northern Ireland,Falmouth,78,Moderate,0,Good,37,Good,0,Good,78,Moderate,50.1552197,-5.0688262
France,Fameck,28,Good,1,Good,27,Good,2,Good,28,Good,49.3043497,6.1041352
Italy,Fano,44,Good,1,Good,44,Good,0,Good,33,Good,43.8424173,13.0146632
Brazil,Feijo,13,Good,1,Good,2,Good,0,Good,13,Good,-8.1648652,-70.3539579
Brazil,Feira Nova,51,Moderate,1,Good,12,Good,4,Good,51,Moderate,-7.9481471,-35.3871681
Germany,Fellbach,30,Good,0,Good,30,Good,2,Good,26,Good,48.8181556,9.278085
Malta,Fgura,49,Good,1,Good,49,Good,0,Good,47,Good,35.8728325,14.520799
France,Fontenay Le Fleury,46,Good,1,Good,19,Good,4,Good,46,Good,48.8106578,2.0461549
India,Forbesganj,217,Very Unhealthy,3,Good,103,Unhealthy for Sensitive Groups,1,Good,217,Very Unhealthy,26.27836065,87.29875647084894
Italy,Forlimpopoli,38,Good,1,Good,38,Good,1,Good,36,Good,44.1873049,12.1259056
Argentina,Formosa,32,Good,0,Good,13,Good,0,Good,32,Good,-24.5955306,-60.4289718
United States of America,Fort Atkinson,64,Moderate,2,Good,5,Good,15,Good,64,Moderate,43.1433382,-91.9326637
United States of America,Fort Morgan,58,Moderate,1,Good,24,Good,4,Good,58,Moderate,40.2502582,-103.799951
Rwanda,Gisenyi,157,Unhealthy,4,Good,17,Good,2,Good,157,Unhealthy,-1.693545,29.259855
United States of America,Gladeview,84,Moderate,1,Good,9,Good,15,Good,84,Moderate,25.8385549,-80.24167358441022
United States of America,Goodings Grove,78,Moderate,2,Good,9,Good,28,Good,78,Moderate,41.6369192,-87.92605894464533
Turkey,Gorele,31,Good,1,Good,31,Good,0,Good,28,Good,41.0335207,38.998624
Netherlands,Gorinchem,40,Good,1,Good,28,Good,4,Good,40,Good,51.8296133,4.9738743
Sweden,Goteborg,38,Good,0,Good,38,Good,1,Good,19,Good,57.7072326,11.9670171
France,Goussainville,51,Moderate,1,Good,21,Good,5,Good,51,Moderate,49.0323168,2.4733628
United States of America,Grand Junction,43,Good,1,Good,17,Good,4,Good,43,Good,39.0672568,-108.56448
Portugal,Grandola,37,Good,0,Good,28,Good,1,Good,37,Good,38.1761212,-8.5680717
France,Grasse,72,Moderate,1,Good,34,Good,3,Good,72,Moderate,43.6589011,6.9239103
United States of America,Greeneville,66,Moderate,2,Good,12,Good,15,Good,66,Moderate,36.1631575,-82.8309861
United States of America,Greenwood Village,75,Moderate,2,Good,5,Good,14,Good,75,Moderate,39.6172101,-104.950814
Denmark,Greve Strand,39,Good,0,Good,39,Good,0,Good,19,Good,55.5833746,12.2999286
Colombia,Guacari,44,Good,1,Good,8,Good,3,Good,44,Good,3.7630235,-76.3344854
Brazil,Guapiacu,57,Moderate,1,Good,6,Good,2,Good,57,Moderate,-20.79663,-49.2253917
Ecuador,Guaranda,59,Moderate,2,Good,1,Good,6,Good,59,Moderate,-1.4398571,-79.05766618235606
Portugal,Guarda,32,Good,1,Good,25,Good,1,Good,32,Good,40.7046066,-7.195139236071309
Italy,Guastalla,85,Moderate,1,Good,27,Good,6,Good,85,Moderate,44.9211516,10.6539985
Senegal,Guinguineo,150,Unhealthy,1,Good,24,Good,2,Good,150,Unhealthy,14.272179,-15.945573
China,Guiyang,99,Moderate,3,Good,41,Good,6,Good,99,Moderate,26.6499922,106.6246178
Germany,Gummersbach,34,Good,1,Good,34,Good,2,Good,27,Good,51.0277658,7.5630545
Germany,Hille,37,Good,1,Good,37,Good,1,Good,24,Good,52.3360492,8.7452571
Haiti,Hinche,144,Unhealthy for Sensitive Groups,3,Good,4,Good,12,Good,144,Unhealthy for Sensitive Groups,19.1445541,-72.0087527
United States of America,Hollins,64,Moderate,1,Good,29,Good,4,Good,64,Moderate,33.127647800000005,-86.13546526971899
Sri Lanka,Homagama,58,Moderate,1,Good,27,Good,1,Good,58,Moderate,6.8412384,80.0034457
Germany,Homburg,31,Good,1,Good,25,Good,3,Good,31,Good,49.3181673,7.3340336
China,Hongan,129,Unhealthy for Sensitive Groups,3,Good,129,Unhealthy for Sensitive Groups,3,Good,78,Moderate,45.21213,127.7939484
United States of America,Hot Springs,72,Moderate,2,Good,17,Good,7,Good,72,Moderate,34.5038393,-93.0552437
China,Houlung,62,Moderate,1,Good,56,Moderate,4,Good,62,Moderate,,
China,Huadian,70,Moderate,2,Good,28,Good,2,Good,70,Moderate,43.106389,126.975
China,Huangchuan,159,Unhealthy,3,Good,159,Unhealthy,2,Good,94,Moderate,32.1175679,115.1511815
Mexico,Huatusco,95,Moderate,3,Good,8,Good,11,Good,95,Moderate,19.145626800000002,-96.9655040729127
Germany,Huckelhoven,34,Good,1,Good,33,Good,2,Good,34,Good,51.0552368,6.2247322
China,Huinan,68,Moderate,2,Good,29,Good,2,Good,68,Moderate,42.529167,126.345
China,Huizhou,124,Unhealthy for Sensitive Groups,4,Good,44,Good,7,Good,124,Unhealthy for Sensitive Groups,23.1125153,114.4127007
Mexico,Hunucma,36,Good,1,Good,23,Good,1,Good,36,Good,21.075634049999998,-89.98939485569475
Egypt,Hurghada,70,Moderate,1,Good,63,Moderate,1,Good,70,Moderate,27.222556,33.8307062
Germany,Husum,32,Good,1,Good,32,Good,2,Good,24,Good,54.4854137,9.0537941
Poland,Gdansk,33,Good,1,Good,33,Good,1,Good,33,Good,54.42880315,18.79832701217957
Netherlands,Geldermalsen,39,Good,1,Good,29,Good,4,Good,39,Good,51.8825577,5.2714789
Romania,Gheorgheni,61,Moderate,1,Good,40,Good,0,Good,61,Moderate,46.7213467,25.5998915
Malaysia,Gurun,54,Moderate,1,Good,47,Good,0,Good,54,Moderate,5.8186842,100.4762517
India,Gwalior,174,Unhealthy,1,Good,46,Good,0,Good,174,Unhealthy,26.2037247,78.1573628
Japan,Haibara,40,Good,1,Good,40,Good,2,Good,33,Good,34.5296854,135.9543447
India,Hailakandi,89,Moderate,2,Good,36,Good,1,Good,89,Moderate,24.6846916,92.5645836
United States of America,Hallandale Beach,83,Moderate,1,Good,11,Good,12,Good,83,Moderate,25.9812025,-80.148379
Sweden,Halmstad,38,Good,0,Good,38,Good,0,Good,20,Good,56.6739826,12.8574827
Germany,Hameln,37,Good,1,Good,37,Good,1,Good,24,Good,52.1039941,9.3561569
Germany,Hamminkeln,34,Good,1,Good,28,Good,4,Good,34,Good,51.7306922,6.590865
India,Hardoi,417,Hazardous,1,Good,49,Good,1,Good,323,Hazardous,27.336997750000002,80.09982319183257
Hungary,Hatvan,38,Good,1,Good,32,Good,1,Good,38,Good,47.6683971,19.6743874
United States of America,Havelock,53,Moderate,1,Good,45,Good,1,Good,53,Moderate,34.8785,-76.9014457
Japan,Hayato,48,Good,1,Good,48,Good,1,Good,33,Good,31.743887,130.7402683
Ukraine,Hayvoron,64,Moderate,1,Good,44,Good,0,Good,64,Moderate,48.3401172,29.8541257
United States of America,Healdsburg,31,Good,1,Good,31,Good,1,Good,26,Good,38.6106812,-122.870138
Germany,Herrenberg,32,Good,0,Good,32,Good,1,Good,26,Good,48.5963819,8.8702368
China,Heyang,174,Unhealthy,9,Good,38,Good,23,Good,174,Unhealthy,35.235757,110.1407931
Netherlands,Heythuysen,35,Good,1,Good,33,Good,2,Good,35,Good,51.2501987,5.9009266
United States of America,Hialeah,93,Moderate,2,Good,6,Good,17,Good,93,Moderate,25.8575963,-80.2781057
Brazil,Fortaleza,25,Good,1,Good,7,Good,1,Good,25,Good,-3.7304512,-38.5217989
France,Fougeres,29,Good,0,Good,29,Good,1,Good,17,Good,48.3503362,-1.1958526
United States of America,Frisco,56,Moderate,1,Good,20,Good,7,Good,56,Moderate,37.7792588,-122.4193286
